stop_id,stop_name,stop_lat,stop_lon
7956617376,Villavicencio,-17.3861782,-66.1858107
9188336167,Parada MiniBus 265,-17.3727325,-66.1202811
3255507885,Plaza Bolívar,-17.3943334,-66.2805659
7961288733,d'Orbigny,-17.3884234,-66.1789469
2590032465,Piscina Victoria,-17.3748074,-66.142891
4652896947,Distribuidor Beijing,-17.3934764,-66.1842977
702512045,Mercado Campesino,-17.4000965,-66.1428835
3152018211,Viaducto Melchor Pérez de Olguín,-17.3935991,-66.1813671
3152018214,Pedro Sarmiento de Gamboa,-17.3937825,-66.1772427
3201986260,Gabriel Lippmann,-17.3933192,-66.1879948
2418531007,Andrés Manuel del Rio,-17.3931478,-66.1915959
2418530998,Avenida Segunda,-17.3929938,-66.1953552
8614087733,Mariano Ricardo Terrazas,-17.396606,-66.1488072
3201987266,Automóvil Club Boliviano,-17.3938969,-66.1745966
4929965563,Aroma,-17.3995436,-66.1579112
7204237206,Parada 200 / 201 / 203 / 204 / 206,-17.3999064,-66.1416607
6546789732,Ladislao Cabrera,-17.3980684,-66.1601373
9166109353,Parada 203,-17.39369,-66.1419751
3201986253,Caracoles,-17.3930291,-66.1876105
2418530986,Gilberto Rojas,-17.3928472,-66.1917176
3152018210,Pedro Sarmiento de Gamboa,-17.3935052,-66.1768493
3152018209,Viaducto Melchor Pérez de Olguín,-17.3933978,-66.1792305
3201986245,Facultad Tecnología UMSS,-17.3921928,-66.1451288
3201986248,Plaza Sucre,-17.3926026,-66.147304
3201986243,Oquendo,-17.390873,-66.1498312
3201986225,Hospital Materno Infantil Germán Urquidi,-17.387402,-66.1483493
3232582111,Ballivián,-17.3847875,-66.1575815
3232582112,La Paz,-17.3860524,-66.1599961
3281516918,ELFEC,-17.3937815,-66.1661183
2418530979,Avenida Segunda,-17.3927051,-66.1949824
2417368128,Juan Pablo II,-17.39248,-66.2004959
2417367986,Caja Nacional de Salud,-17.3922801,-66.2044745
3255507841,Caritas,-17.3918891,-66.2139676
4571961295,CIMFA Quillacollo,-17.3917224,-66.2576868
5238905983,Automóvil Club Boliviano,-17.3936142,-66.1744359
9309963144,Quintanilla,-17.3815855,-66.1515932
6546789757,México,-17.3881606,-66.1597763
6285093143,Colombia,-17.3899202,-66.1501164
3201986240,Ecuador,-17.3903607,-66.1593765
9612259299,Antezana,-17.3834149,-66.1555294
4447024420,Uyuni,-17.3726281,-66.1365692
7956617374,d'Orbigny,-17.3858242,-66.1860154
7961798446,d'Orbigny,-17.3876376,-66.1790048
8616284788,Piscina Victoria,-17.3750759,-66.1426462
3919761699,Parada B,-17.362926,-66.1395799
2398944600,Jordán,-17.3955835,-66.1583439
2126673437,Plaza Tarija,-17.373225,-66.1429606
4503778521,Teatro Adela Zamudio,-17.3919213,-66.1555078
6546789745,16 de Julio,-17.391113,-66.1511161
5472737093,Lanza,-17.3915168,-66.1532679
8388301542,Escuela de Sargentos,-17.3797563,-66.1433335
6546789754,Baptista,-17.3923019,-66.1576726
9236707183,Parada B,-17.3980827,-66.1887727
3264544592,SEDES,-17.3883284,-66.1492259
6299491685,Papa Paulo,-17.3840179,-66.1462664
2892512813,Hospital Materno Infantil Germán Urquidi,-17.3872251,-66.1484657
2604131854,Parada Micro B,-17.4143425,-66.1781646
9089962342,Parada MicroBus A,-17.4904108,-66.1722234
4513148270,Plaza Colón,-17.3877859,-66.1552579
8587381091,Tarija,-17.3754391,-66.161684
3593740806,Cala Cala,-17.3689132,-66.1635787
4929965578,Casona Mayorazgo,-17.3654786,-66.174806
2318865565,Parada A,-17.3320503,-66.1878215
4747939821,Venezuela,-17.3887496,-66.1550623
2370240952,Teófilo Vargas,-17.3749141,-66.16205
2384907360,Obispo Anaya,-17.3763349,-66.1616316
3283363711,La Paz,-17.3849291,-66.1581533
3283363712,Plaza Colón,-17.3875281,-66.1561495
4261955413,Casona Mayorazgo,-17.3655384,-66.1753167
2381924851,Teniente Arévalo,-17.3832905,-66.1594211
6546789740,Jordán,-17.3949516,-66.1550797
8907971589,Teatro Adela Zamudio,-17.3918733,-66.1556773
9655323870,Plaza Luis Felipe Guzmán Achá,-17.3681724,-66.1641868
4929965584,América,-17.3722531,-66.1628456
4929965580,Ricardo Jaimes Freire,-17.3658333,-66.1679739
5117996890,Plaza Colón,-17.3887029,-66.1562246
8591667681,Juan de la Rosa,-17.3778538,-66.1611938
2384907362,Libertador Simón Bolívar,-17.3779213,-66.1606925
4586487839,unnamed,-17.3910973,-66.2319438
9166109352,Parada MicroBus 203,-17.397898,-66.2813196
6448927988,Ramón Rivero,-17.3810666,-66.1517641
4072794197,Jordán,-17.3957372,-66.1581391
7719049951,Oquendo,-17.3919625,-66.1496603
5280985262,Escuela de Sargentos,-17.379724,-66.1431472
4630872816,Baptista,-17.3925382,-66.1579317
9024034031,Puente Killman,-17.4099195,-66.1746021
4929965565,Aroma,-17.3996069,-66.15758
6546789747,Lanza,-17.3917497,-66.1534636
4868993435,Heroínas,-17.3911373,-66.1498749
4630872742,Teatro Adela Zamudio,-17.3921476,-66.1557021
4630872817,16 de Julio,-17.3913398,-66.1513165
5448919524,Parada C,-17.4315324,-66.1205253
6426985929,Melchor Pérez de Olguín,-17.3879228,-66.1786515
9089962341,Parada MicroBus C,-17.3596704,-66.1753388
9166109351,Parada MicroBus 203,-17.4021486,-66.2812772
2433240293,Facultad Tecnología UMSS,-17.3923227,-66.1452275
3255507858,unnamed,-17.3921762,-66.2141063
2417368269,Juan Pablo II,-17.3927555,-66.2006194
3255507872,Plaza Sucre,-17.3928257,-66.1479977
3924761820,Plaza Sucre,-17.3927703,-66.1485425
4630872815,ELFEC,-17.3937474,-66.1651166
6546789752,Plaza Guzmán Quitón,-17.393077,-66.1612192
6497882685,Parada a Pairhumani,-17.3940604,-66.2818004
3257962964,Parada MiniBus 211,-17.3451303,-66.3312604
1577578175,Parada E,-17.3609542,-66.2280262
3924761801,Oquendo,-17.3931161,-66.149717
8455639763,Servicio de Caminos,-17.3750148,-66.1295975
5379550427,Puente Hernando Siles,-17.3746906,-66.1333615
5483300067,Parada E,-17.372863,-66.1143294
8403427566,Parque de la Autonomía,-17.3894391,-66.1413127
8455639762,Servicio de Caminos,-17.3748332,-66.1293207
8600947271,Puente Muyurina,-17.376922,-66.1405244
9049714548,Irlandés,-17.375869,-66.1375835
6546789705,San Martín,-17.4022568,-66.1531583
7965603633,Puente Hernando Siles,-17.3744456,-66.1334983
4673887319,Sucre,-17.3935547,-66.1530562
9159489093,Parada Trufi 106,-17.3378147,-66.2651123
4261955411,Cochabamba,-17.3407086,-66.2154213
4710463752,Trojes,-17.3453805,-66.2043569
4293894337,Aldeas SOS,-17.3499956,-66.1941879
4710462982,Cruce Taquiña,-17.3544672,-66.1879305
4929965576,Beijing,-17.3642844,-66.1792336
4929965586,Ayacucho,-17.4009382,-66.1574002
7961801407,d'Orbigny,-17.3878387,-66.1822515
789429486,Parada 290,-17.3329201,-66.1978107
8015423522,Plaza Reforma Agraria,-17.3989305,-66.1643095
8581169584,Coliseo UMSS,-17.3955142,-66.1433069
6497877690,Parada a Vinto,-17.3940093,-66.2816586
2009078679,Parada LL,-17.3905542,-66.1361145
8581169578,Oquendo,-17.3997932,-66.1479557
3523802587,Parada LL,-17.377578,-66.2023724
9112012966,Parada W,-17.4407212,-66.1457361
8565985145,Plazuela Guzmán Quitón,-17.3932817,-66.161984
6469065592,Parada W,-17.3597062,-66.2814724
9112012964,Parada W,-17.4403084,-66.1447992
6543610285,Parada G,-17.3506447,-66.1613571
6546789761,Ballivián,-17.3863951,-66.1563966
9091489577,Parada G,-17.4002964,-66.1912423
4006214505,Plaza Constitución,-17.3841083,-66.1530852
3306972616,Plaza Constitución,-17.3850018,-66.1535407
7965782189,Pando,-17.377831,-66.151482
9091521324,Parada H,-17.3926133,-66.0951498
4161990022,Río Wara Wara,-17.3788356,-66.1234309
9191719940,Copacabana,-17.4250732,-66.1539649
9091521325,Parada H,-17.4643903,-66.1517174
9030099131,Hospital COSSMIL,-17.3797631,-66.1449914
9884224448,Cine Center,-17.3807717,-66.1506307
2590032633,Hospital COSSMIL,-17.3798249,-66.1447821
11074350997,Parada H,-17.3927761,-66.0953307
6634661780,Parada Q,-17.4223384,-66.2889571
324013584,Parada Q,-17.3992622,-66.1358802
4747363512,Moxos,-17.4094951,-66.1494308
7512987720,Teatro al Aire Libre,-17.3977015,-66.1356416
9170720380,Distribuidor Vial Cobija,-17.3871174,-66.1660492
4929965579,Ricardo Jaimes Freire,-17.3657264,-66.1674456
4929965574,Beijing,-17.3644778,-66.1781471
4929965573,Cruce Taquiña,-17.3546136,-66.1874278
4346782407,Aldeas SOS,-17.3501047,-66.1936109
4491060721,Trojes,-17.3451588,-66.2044347
4261955409,Cochabamba,-17.3408968,-66.2142184
4582125299,Plaza de las Banderas,-17.3825917,-66.1592975
9888902928,Parque de la Autonomía,-17.3885781,-66.1417147
9936831849,Cristo de la Concordia,-17.3850195,-66.1357029
9888902929,Parque de la Autonomía,-17.3885423,-66.1417409
9936831848,Cristo de la Concordia,-17.3849761,-66.1357317
6123121857,Parada J,-17.4519435,-66.1148008
9101468466,Parada MicroBus J,-17.3689241,-66.1913927
6546789756,México,-17.3884101,-66.1595565
6285093144,Ecuador,-17.3905637,-66.1591463
4227442132,La Paz,-17.3859812,-66.1602172
6143236418,Parada 16,-17.4500655,-66.1140652
6185969484,ibirizu,-17.4437158,-66.1405098
6185973504,La Libertad,-17.4475936,-66.1337929
7904043766,Montevideo,-17.4445255,-66.1392545
9139049454,Parada MiniBus 16,-17.3426163,-66.1965853
6185973485,Montevideo,-17.444722,-66.1393109
9655323871,Plaza Luis Felipe Guzmán Achá,-17.3680154,-66.1636949
8477746609,Ballivián,-17.4337014,-66.1487375
9102220660,Parada Trufi R,-17.4524827,-66.1086175
8015423520,Plaza Reforma Agraria,-17.3988018,-66.1644197
9102220659,Parada R,-17.3996498,-66.2144103
10274952147,Tumusla,-17.3983184,-66.1611182
1600623812,Parada 1,-17.4415672,-66.1166389
6546789726,Brasil,-17.3993477,-66.1531674
6546789734,Ladislao Cabrera,-17.3971019,-66.1534801
6546789738,Jordán,-17.395016,-66.153861
6269043687,Heroínas,-17.3919773,-66.1544428
4513148873,Chuquisaca,-17.3865818,-66.1563576
4513148271,La Paz,-17.3851051,-66.1574303
4513148874,Oruro,-17.3838223,-66.1583916
9112076037,Parada 1,-17.3462244,-66.1907478
6546789728,Aroma,-17.3988527,-66.1543143
6426986600,Reza,-17.3865602,-66.1568958
3016850700,Parada 136,-17.4573348,-66.1058944
7956617375,Villavicencio,-17.3860962,-66.1849205
560522422,Parada 136,-17.3868906,-66.1963948
7961801410,Beijing,-17.3873813,-66.1825534
1576391847,Parada Trufi 102,-17.3602885,-66.1867689
8635068931,Ecuador,-17.3892674,-66.1539081
9150327855,Parada 103/ 102,-17.4460151,-66.1837342
1576391954,Parada Trufi 108,-17.3633641,-66.1859295
8147129126,José Martí,-17.3892028,-66.1636322
9150327846,Parada Trufi 108,-17.4631108,-66.1170162
2852221395,Plaza Colón,-17.3888764,-66.1562204
6546789736,Calama,-17.3952162,-66.1505192
3913796838,Parada 10,-17.3520995,-66.1608457
9112076029,Parada 10,-17.4869618,-66.1587121
5368460671,Paccieri,-17.3856149,-66.1509839
3308828890,Parada 1001,-17.4410195,-66.1460111
9150327857,Parada Trufi 101,-17.3427133,-66.1964552
3232582113,Ayacucho,-17.388313,-66.1598276
9774122172,México,-17.3889572,-66.1635549
6910669615,Parada Trufi 101,-17.3472537,-66.1995948
6546789758,Ayacucho,-17.3872702,-66.1597358
5448919322,Parada 101,-17.4436836,-66.1459479
9150327851,Parada Trufi 104,-17.4388422,-66.1315809
9150327850,Parada Trufi 104,-17.4705375,-66.2092017
9118954772,Oquendo,-17.3951387,-66.1489279
2032951803,Parada Trufi 107,-17.4153434,-66.1492968
3684250811,Parada Trufi 107,-17.4144764,-66.2195397
9150327841,Parada 109,-17.4265939,-66.1438424
2696093961,Teniente Arévalo,-17.3841685,-66.1603834
9150327840,Parada Trufi 109,-17.3510634,-66.163983
806735290,Parada 121,-17.3662465,-66.1281604
6185973505,Belgica,-17.4484968,-66.1328148
2677221029,Parada 121,-17.4439411,-66.1149601
6546789762,La Paz,-17.3834165,-66.1556936
9101586943,Parada MicroBus B,-17.3641179,-66.127258
8635068932,Venezuela,-17.3878287,-66.1518412
6762892352,Parada M,-17.4728267,-66.2091073
4715843291,Paccieri,-17.3860565,-66.1523661
9112145503,Parada MiniBus 11,-17.347394,-66.1651792
9112145504,Parada MiniBus 11,-17.4443149,-66.1295651
9150491042,Parada MiniBus Z,-17.3473818,-66.1997321
9150491041,Parada MiniBus Z,-17.4378922,-66.1525413
4747363511,Moxos,-17.4094717,-66.1496651
6546789737,Jordán,-17.3942543,-66.1492786
6546789718,Aroma,-17.3986201,-66.1484034
707336764,Parada 232,-17.4093533,-66.1642016
9181387015,Plaza de Sacaba,-17.404486,-66.0400602
7555586465,Puente Killman,-17.4097757,-66.1740432
9050073281,Complejo de Squash,-17.3693539,-66.1757976
9184290535,Parada 240,-17.3989442,-66.1890208
7961801409,Beijing,-17.3874046,-66.1818889
5162127577,Melchor Pérez de Olguín,-17.3879967,-66.1799792
7961801408,d'Orbigny,-17.386799,-66.1824764
9181387014,Parada 230,-17.3976612,-66.187162
9188181121,Parada MicroBus 250,-17.4279146,-66.1576161
6546789759,Lanza,-17.3885027,-66.1541491
8635068933,16 de Julio,-17.3880085,-66.1519262
2852221382,Plaza Colón,-17.3887204,-66.15526
2590032693,Aniceto Arce,-17.3841727,-66.1460658
7217558280,Parada 120 / 118,-17.4023423,-66.150827
786837426,Parada MiniBus 118,-17.3410416,-66.2140885
1626994675,Parada 116,-17.4684925,-66.1567917
2319145479,Parada 116,-17.3369774,-66.1761707
6204898386,Parada Y,-17.4078462,-66.1847192
9112016925,Parada MicroBus Y,-17.4863624,-66.160195
9112012971,Parada Trufi Taquiña,-17.3286542,-66.1850376
782027478,Parada W,-17.3526627,-66.285812
2440975735,Parada W,-17.4418588,-66.1459357
3139141423,Parada 113,-17.3412507,-66.2138575
6185973526,Refinería Gualberto Villarroel,-17.4554531,-66.1261804
6186229191,Refinería Gualberto Villarroel,-17.4579627,-66.1247065
7940871652,unnamed,-17.4663201,-66.118031
8038200532,Austria,-17.4517515,-66.1294021
3016887906,Parada 113,-17.4686252,-66.109264
7904043722,Refinería Gualberto Villarroel,-17.455811,-66.1256603
6186229192,Refinería Gualberto Villarroel,-17.4578149,-66.1244668
6733961584,Austria,-17.4513098,-66.129354
4806920998,16 de Julio,-17.3889195,-66.1515123
9153572858,Parada Trufi 01,-17.4358745,-66.1112554
9153572857,Parada 01,-17.34292,-66.1710995
9138856836,Parada Trufi 03,-17.4250139,-66.1410937
11186972644,Parada Trufi 03,-17.3603111,-66.1968983
9139130614,Parada Trufi 010,-17.4466896,-66.1090882
9139130613,Parada Trufi 010,-17.3476602,-66.1645972
9139238423,Parada 45,-17.4524661,-66.1498806
2319491007,Parada MiniBus 45,-17.3682133,-66.1151758
9153572856,Parada Trufi 016,-17.341595,-66.2129098
2087364089,Parada V,-17.3449197,-66.1982186
9112012968,Parada MicroBus V,-17.4411817,-66.1573827
9150435213,Parada 112,-17.4523637,-66.1601655
2160400885,Parada 112,-17.3546776,-66.1901782
660012871,Parada Trufi 212,-17.3945144,-66.1834909
2956787226,Quintanilla,-17.3836359,-66.1110959
6299490283,Maximiliano Kolbe,-17.3838581,-66.1099336
4892045775,INFOCAL,-17.3824898,-66.1166996
9180628300,Parada Trufi 212,-17.3967296,-65.9962953
2956787210,Quintanilla,-17.3834065,-66.1110376
6299490284,Maximiliano Kolbe,-17.3836151,-66.109932
6617619878,INFOCAL,-17.382271,-66.116526
4251839105,Avenida Décima,-17.3887373,-66.0844182
9150435212,Parada Trufi 114,-17.4556197,-66.1085249
9150435211,Parada 114,-17.366896,-66.1717741
9159978618,Parada Trufi 122,-17.4761251,-66.1410274
2317720986,Parada 122,-17.3467091,-66.1685413
9159978610,Parada Trufi 134,-17.3687802,-66.1917608
3979319678,Parada 134,-17.3487673,-66.1894942
9161482741,Parada Trufi 135,-17.4905284,-66.1769186
6358829585,Parada 135,-17.3700884,-66.1429675
9188336165,Parada 311,-17.4761556,-66.1653398
9188336166,Parada 311,-17.3732867,-66.1910243
9150435209,Parada Trufi 119,-17.4696875,-66.0971457
9150435208,Parada 119,-17.3446616,-66.1820403
9159978617,Parada Trufi 123,-17.4806139,-66.100076
9159978616,Parada Trufi 123,-17.3461452,-66.1653999
9139175169,Parada 012,-17.4315896,-66.1414222
9139175170,Parada 012,-17.3956624,-66.1867816
9150435210,Parada 115,-17.4524469,-66.1479433
2318865667,Parada 115,-17.3408446,-66.1807665
9152987310,Parada MiniBus 160,-17.4211227,-66.1135528
9152987311,Parada MiniBus 160,-17.4012637,-66.1511815
10744627743,Libertador Simón Bolívar,-17.3782783,-66.1611919
9181583442,Parada MiniBus 233,-17.3758888,-66.095995
9181583444,Parada MiniBus 233,-17.4228284,-66.1601977
9181583443,Parada 233,-17.3745423,-66.1050381
9180628298,Parada MicroBus 220,-17.4018793,-66.0443518
9180628297,Parada MicroBus 220,-17.3963418,-66.1966248
7254170125,Parada 6,-17.3830137,-66.207882
7254170124,Parada 6,-17.4423838,-66.1127485
9546323316,Campo Ferial Alalay,-17.4186481,-66.1277351
9159978615,Parada Trufi 125,-17.4671712,-66.1459237
2319257635,Parada 125,-17.3675912,-66.1170138
2032685226,Parada Trufi 131,-17.4462078,-66.1195239
1489807947,Parada Trufi 131,-17.3697983,-66.1158232
9139049448,Parada MiniBus 19,-17.4713089,-66.1398143
9139049449,Parada 19,-17.3417576,-66.1714878
2421564269,Parada 2,-17.4200399,-66.1687951
3284842331,Parada 2,-17.3636437,-66.1408251
9139122664,Parada MiniBus 20,-17.4484552,-66.1051796
2318945688,Parada 20,-17.3449279,-66.1765725
9159978614,Parada Trufi 130,-17.3563206,-66.1775878
9159978613,Parada Trufi 130,-17.350287,-66.1846849
2590032644,Ramón Rivero,-17.380732,-66.1471743
6566915337,Parada 202,-17.4112173,-66.1473661
9091521323,Parada MicroBus I,-17.3566559,-66.1847667
11070784561,Parada I,-17.4512419,-66.1253088
2677330274,Parada P,-17.460607,-66.11295
9102220661,Parada Trufi P,-17.4176742,-66.224218
2319145554,Parada 110,-17.3430998,-66.1771359
3017320666,Parada Trufi 110,-17.4440108,-66.1210178
2317720975,Parada 110,-17.3454697,-66.1683236
1499573791,Parada 110,-17.4495635,-66.1291679
2368317053,Parada Trufi 110,-17.3503853,-66.1842851
9150440817,Parada Trufi 110,-17.4416385,-66.1378442
3017419897,Parada 111,-17.373322,-66.200365
3722182761,Parada 111,-17.4882299,-66.1805687
9150435216,Parada Trufi 111,-17.4628901,-66.1597243
9150435214,Parada 111,-17.4745032,-66.1857793
9150435215,Parada Trufi 111,-17.48176,-66.1535633
5605232832,21 de Enero,-17.391469,-66.2301716
9166109350,Parada 203,-17.4007928,-66.1436733
9166109349,Parada MicroBus 203,-17.392091,-66.2104321
1583410878,Parada 212,-17.4157518,-66.2108706
8543061792,Puente Killman,-17.4096208,-66.173507
7057390757,Parada 212,-17.3786656,-66.0676541
7057405586,Parada 211,-17.4223417,-66.1340089
8015423521,Plaza Reforma Agraria,-17.3992074,-66.1643954
7204237207,Parada MiniBus 210,-17.3999814,-66.1421515
9008315796,Cruce Piñami,-17.39138,-66.2510855
2590032891,Parada 209,-17.388476,-66.1420613
9174728080,Parada MiniBus 209,-17.3739036,-66.3241115
9170105658,Parada MiniBus 207,-17.4119107,-66.2755743
7532921010,Parada 207,-17.3663172,-66.1578617
9650569049,Plaza Juan Bautista de La Salle,-17.3913752,-66.1651732
9102220662,Parada Trufi P,-17.4240312,-66.2017867
9139203899,Parada 46,-17.3631776,-66.1703753
9139203897,Parada 46,-17.448697,-66.2121575
9139203898,Parada MiniBus 46,-17.4685189,-66.2102672
9139203896,Parada 46,-17.362305,-66.1688647
9139251767,Parada 51,-17.3843716,-66.209121
1626994793,Parada 51,-17.4701886,-66.1582125
9139251766,Parada 51,-17.4754645,-66.1556198
9139251768,Parada MiniBus 51,-17.4704557,-66.1356314
9112012963,Parada MicroBus X,-17.4717042,-66.098299
9112012961,Parada X,-17.3843368,-66.20784
8995432797,Parada X,-17.3844717,-66.2078325
9112012962,Parada MicroBus X,-17.4805381,-66.1014181
1627089586,Parada Y,-17.4872315,-66.1599454
9102240015,Parada MicroBus S,-17.4276255,-66.115783
9102240014,Parada S,-17.3953961,-66.2307787
5390500469,Parada T,-17.3783792,-66.2057244
2677330230,Parada T,-17.4589974,-66.1125217
9112076033,Parada MiniBus 8,-17.4137701,-66.0885129
9112076032,Parada MiniBus 8,-17.4591635,-66.1011408
9112076034,Parada MiniBus 8,-17.4760065,-66.1331329
9112076030,Parada 9,-17.3571067,-66.1893117
9112076031,Parada 9,-17.4412863,-66.1674674
668478430,Parada 14,-17.3774714,-66.1385888
780227761,Parada MiniBus 14,-17.4545297,-66.2532554
9112145500,Parada MiniBus 14,-17.4694876,-66.2325245
9112145499,Parada 14,-17.3790158,-66.1419357
9112131503,Parada MiniBus 15,-17.3505879,-66.1637914
9112131504,Parada MiniBus 15,-17.4351235,-66.133038
9112131505,Parada MiniBus 15,-17.3505043,-66.1637714
6546789760,Salamanca,-17.3857212,-66.1538556
5301399407,Paccieri,-17.3871765,-66.1531956
9150327856,Parada 101,-17.4500897,-66.1531695
9150327853,Parada Trufi 103,-17.3516688,-66.1548199
9150327852,Parada Trufi 103,-17.4730564,-66.1620437
7195622171,Parada Trufi 103,-17.4761385,-66.1715076
9150327854,Parada 103,-17.3571718,-66.1540327
9150327847,Parada Trufi 107,-17.4216409,-66.2168808
2032951809,Parada Trufi 107,-17.4155264,-66.1465078
9138856834,Parada MiniBus 5,-17.351425,-66.1622664
9112076036,Parada MiniBus 5,-17.4395993,-66.1349145
6546789715,16 de Julio,-17.4000021,-66.1499886
9150327845,Parada Trufi 108,-17.4478264,-66.1103663
9150327844,Parada Trufi 108,-17.4013994,-66.1511546
7198487845,Parada Trufi 132,-17.3681933,-66.1122595
9159978612,Parada Trufi 132,-17.4706962,-66.1339094
5448919523,Parada Trufi 132,-17.4452,-66.1194591
9159978611,Parada Trufi 132,-17.462601,-66.1177129
1610527012,Parada K,-17.4217125,-66.1239697
1583414264,Parada K,-17.4004009,-66.1977171
9139049451,Parada MiniBus 18,-17.3619949,-66.186934
9139049450,Parada MiniBus 18,-17.4547702,-66.1075392
4866625931,Parada 31,-17.3528777,-66.1998699
9139156714,Parada MiniBus 31,-17.4524603,-66.1460752
9139156712,Parada 35,-17.3507356,-66.1555476
9139156713,Parada MiniBus 35,-17.4971272,-66.179637
9101635143,Parada MicroBus N,-17.4239717,-66.1496587
9101630197,Parada MicroBus O,-17.4362226,-66.1364698
9101630198,Parada MicroBus O,-17.3650134,-66.1195426
9112012969,Parada U,-17.4272454,-66.1651551
9112012970,Parada U,-17.3663033,-66.1163801
9112145502,Parada MiniBus 13,-17.3385803,-66.201722
9112145501,Parada MiniBus 13,-17.4405643,-66.1334073
9139049452,Parada MiniBus 17,-17.3606714,-66.1910753
9139049453,Parada MiniBus 17,-17.4811166,-66.150063
9139156710,Parada MiniBus 36,-17.345276,-66.1655433
9139156711,Parada 36,-17.4270913,-66.1624675
2318865632,Parada 40,-17.3365662,-66.1884347
9139238425,Parada MiniBus 40,-17.4746215,-66.1438409
9150327842,Parada Trufi 109,-17.3504523,-66.1575141
9150327843,Parada Trufi 109,-17.4370273,-66.1418366
9139251765,Parada MiniBus 52,-17.4866451,-66.1187114
9139251764,Parada 52,-17.4522416,-66.1292685
7221016041,Parada 150 / 120,-17.3326436,-66.2261727
786837437,Parada 120,-17.3214227,-66.2123566
2319257633,Parada 133,-17.3673332,-66.1223841
9152987313,Parada MiniBus 133,-17.3817276,-66.2080248
9152987312,Parada MiniBus 133,-17.365545,-66.123487
560437459,Parada 133,-17.38133,-66.2000781
9161482740,Parada 138,-17.3881377,-66.1906227
7220452911,Parada 138,-17.4581044,-66.1133069
9159610931,Parada Trufi 108 / 148,-17.4626355,-66.1114204
7424209199,Parada 150,-17.4034928,-66.1508917
1044378888,Parada 217,-17.3717349,-66.1229809
9180628299,Parada MiniBus 217,-17.4075611,-66.2885535
7555327047,Parada Minibus 241,-17.4003581,-66.0436461
9184434016,Parada MiniBus 241,-17.4430503,-66.1326031
702512051,Parada MiniBus 205,-17.3998,-66.1404631
9170105657,Parada MiniBus 208,-17.3962458,-66.3161869
3315367936,Parada 208,-17.4213259,-66.1529791
9188336169,Parada MiniBus 265,-17.4118851,-66.1478394
9139122663,Parada MiniBus 27,-17.4388851,-66.1072174
9139122662,Parada 27,-17.399824,-66.21455
7235247650,Parada 261,-17.4096063,-66.1471552
6285092638,Parada Suticollo,-17.4684381,-66.3384515
7235443765,Parada 244,-17.420065,-66.1500702
4003625828,Parada MiniBus 43,-17.449667,-66.1171609
9139238424,Parada MiniBus 43,-17.3922817,-66.1184391
5350276741,La Paz,-17.3835971,-66.1554307
7265051490,Parada K,-17.4001475,-66.1976812
7265124743,Parada I,-17.4512418,-66.1251798
7265135739,Parada I,-17.3523167,-66.182619
7265217429,Parada 3,-17.3581069,-66.1492045
7265217428,Parada 3,-17.3970587,-66.2142319
7530697619,Parada 207,-17.3674806,-66.1576702
9150327849,Parada 106,-17.4002943,-66.1437739
9150327848,Parada 106,-17.337791,-66.2190132
7523014238,Parada F,-17.4232942,-66.186203
7523014237,Parada F,-17.3452648,-66.1726567
7523417715,Parada L,-17.3970906,-66.2382971
7523417714,Parada L,-17.3493966,-66.1712769
7524830387,Parada 148,-17.3868082,-66.1520407
7525071662,Parada 39,-17.4527168,-66.1705068
7525071661,Parada 39,-17.381787,-66.2080458
7526164933,Parada 50,-17.4489971,-66.1209382
7526164932,Parada 50,-17.3375506,-66.2195949
7526324576,Parada 137,-17.4564194,-66.1608755
7526324575,Parada Trufi 137,-17.3748788,-66.1414613
7526901553,Parada W,-17.3383538,-66.2898451
7527830380,Parada 201,-17.4106334,-66.2916716
7527852378,Parada 201,-17.409016,-66.298384
7528023552,Parada MicroBus 203,-17.3794988,-66.2972469
7529056667,Parada 204,-17.3798036,-66.2805411
7528946227,Parada 204,-17.4197181,-66.2845359
7529134511,Parada 204,-17.3641558,-66.2682356
7529523382,Parada MiniBus 205,-17.399571,-66.1393584
7529144682,Parada 205,-17.3807604,-66.2816357
7529548949,Parada 205,-17.4055375,-66.2803798
7529663427,Parada 205,-17.4229835,-66.2910335
7529736173,Parada MiniBus 206,-17.4236937,-66.2853757
7530304553,Parada 206,-17.3772309,-66.2818696
7530422855,Parada 206,-17.3576713,-66.2748366
7530424359,Parada 206,-17.3883847,-66.3293398
7530697618,Parada 207,-17.4056815,-66.2780881
7532956439,Parada 207,-17.4159181,-66.2983477
7533197607,Parada 207,-17.4134649,-66.2718749
7533561456,Parada MiniBus 208,-17.4128244,-66.1502801
7533561454,Parada 208,-17.4031759,-66.3394208
7535397901,Parada 208,-17.4313234,-66.3245796
7535355091,Parada 208,-17.4724679,-66.3399247
7535444841,Parada 208,-17.4132769,-66.3265281
7535510374,Parada 208,-17.3443624,-66.3853414
7535523330,Parada 208,-17.3832198,-66.3468392
7535552563,Parada 211,-17.4064454,-66.1485863
7535552561,Parada 211,-17.3836906,-66.308022
7535716078,Parada 210,-17.3386359,-66.2675491
7537771288,Parada MiniBus 201,-17.3755579,-66.2972797
5744018988,German Busch,-17.3932933,-66.2704535
7538027738,Parada 201,-17.3689163,-66.2995752
7538044855,Parada 211,-17.372882,-66.2903205
7538111670,Parada 211,-17.3573363,-66.3427581
782026670,Parada 211,-17.3299992,-66.2827745
7538261510,Parada 245,-17.4125486,-66.375886
7539498521,Parada 245,-17.4303476,-66.3418948
7539563435,Parada 245,-17.462304,-66.315247
7539568446,Parada Minibus 245,-17.4174394,-66.3851035
7539603688,Parada Minibus 245,-17.438806,-66.3765722
7541581659,Parada 245,-17.3959045,-66.3163448
7541581658,Parada 245,-17.5751288,-66.3517109
7543121640,Parada Minibus 260,-17.41919,-66.3651724
7545005570,Parada Minibus 260,-17.4285591,-66.346614
9188181118,Parada MiniBus 260,-17.4611323,-66.3119879
7545061847,Parada Minibus 260,-17.4165054,-66.3884784
7545129748,Parada Minibus 260,-17.4476801,-66.3745915
7546528452,Parada 260,-17.3957859,-66.3163283
7546528450,Parada 260,-17.5681066,-66.3455825
7546569859,Parada Minibus 265,-17.4096538,-66.1499596
7546569858,Parada Minibus 265,-17.3203935,-66.2829019
7546627578,Parada Minibus 265,-17.4099936,-66.1509463
9188336168,Parada MiniBus 265,-17.3352512,-66.3003472
7548829346,Parada MiniBus 120,-17.3205195,-66.2226763
9188181120,Parada MicroBus 250,-17.3340233,-66.2263524
7550279100,Parada Microbus N,-17.4074226,-66.1141109
4251839135,Avenida Décima,-17.3888846,-66.0854501
7550317715,Parada 212,-17.4079425,-65.9951745
7551844536,Parada 233,-17.3945868,-65.9862312
7552071510,Parada Minibus 233,-17.4236927,-66.1619791
9181583445,Parada MiniBus 233,-17.3966707,-66.0201435
9181583446,Parada MiniBus 233,-17.4159032,-66.04151
7554143477,Parada 233,-17.3692217,-66.1037575
7554585133,Parada Minibus 233,-17.4063251,-66.0806876
3218389499,Néstor Morales,-17.3809401,-66.1441457
7063990492,Parada 241,-17.4157859,-65.9500513
9184434015,Parada MiniBus 241,-17.3939486,-65.9992786
9184434012,Parada MiniBus 244,-17.4313706,-65.9945163
9184434014,Parada MiniBus 244,-17.4136363,-66.0293602
9184434013,Parada MiniBus 244,-17.4138929,-66.0411733
7563209554,Parada 120,-17.3247905,-66.2317168
7563209553,Parada Trufi 120,-17.3943746,-66.241425
7567742430,Parada Trufi 103,-17.5001554,-66.1652602
7567742429,Parada 103,-17.3538827,-66.1578601
8162958916,Rotonda El Castillo,-17.3810087,-66.1207775
11168934466,Parada 212,-17.4028697,-66.0380585
11170797666,Parada Trufi 212,-17.3717507,-66.0716581
11187226778,Parada 121,-17.4488843,-66.1175348
