stop_id,stop_name,stop_lat,stop_lon
4980841300,37,5.5888594000000005,-0.179598
5043794576,37 Military Hospital,5.590079800000001,-0.1824079
4980841299,Culture,5.5934508,-0.185181
4980841298,Roman Ridge,5.6029353,-0.20031140000000003
4980841297,Ebony,5.605161600000001,-0.20368960000000003
4980841296,Dzorwulu Junction,5.607311800000001,-0.2070102
4980841295,Abelenkpe Junction,5.6099334,-0.2109196
2917277220,Abofu,5.6139906,-0.2229509
4980841293,Achimota Overhead,5.6132664000000005,-0.22553950000000003
4980841291,Akweteyman,5.611567300000001,-0.2313117
4980841290,Flat Top,5.609545400000001,-0.23808490000000002
4980841289,Lapaz Market,5.609017700000001,-0.24051000000000003
4980841288,Bambolino,5.608709900000001,-0.24237350000000002
4980841287,Nii Boi Town Junction,5.608204300000001,-0.24521900000000002
4980841285,Abeka Lapaz,5.607282400000001,-0.24816770000000002
4980974748,Shalom,5.531225600000001,-0.23222830000000003
4980974749,Asoredan ho,5.531474,-0.23226800000000003
4980974747,Market,5.531885300000001,-0.23526260000000002
4980974746,Market Junction,5.5321588,-0.23723700000000003
4980974745,Shell,5.532988700000001,-0.23734370000000002
4980974744,Mamprobi Station,5.5346741,-0.2377661
4980974743,Sempe First,5.5370014,-0.23833990000000002
4980974742,Sempe Second,5.5386027,-0.2387178
4980974741,Salvation Army,5.540965600000001,-0.23928210000000003
4980974730,Korle Bu Junction,5.5436043,-0.2399263
4980974739,Radio Gold,5.5480701,-0.24013270000000003
4980974738,Black Smith,5.551107300000001,-0.24012010000000003
4980974737,Pipeier Naa,5.5535038000000005,-0.24012890000000003
4980974736,Kasoa Station,5.5562747,-0.24014320000000003
4980974735,Zongo Junction,5.5577934,-0.23978880000000002
4980974734,Asoredan ho,5.561402,-0.2387208
4980974733,Dansoman Junction,5.5632117,-0.23763650000000003
5125132106,Kaneshie,5.564141,-0.23597940000000003
4980974731,Kaneshie,5.5640961,-0.2358676
4980974761,Zongo Junction,5.5575568,-0.2399215
4980974754,Pipeier Naa,5.552937200000001,-0.24020480000000002
4980974765,Black Smith,5.5508347,-0.2402081
4980974757,Radio Gold,5.5486332,-0.24021060000000002
4980974760,Salvation Army,5.541646600000001,-0.23953110000000002
4980974753,Sempe First,5.539103600000001,-0.2389032
4980974764,Sempe Second,5.5367807,-0.2383511
4980974758,Mamprobi Station,5.5342555,-0.23774060000000002
4980974768,Mamprobi Shell,5.5335068000000005,-0.2375607
4980974759,Market,5.5320138000000005,-0.237275
4980974751,Banku Junction,5.5308527000000005,-0.23704840000000002
4980974762,Duanase,5.5295993,-0.23678280000000002
4980974752,White House,5.5283443000000005,-0.23652250000000002
6400533259,White House,5.527536100000001,-0.23622620000000003
6400533258,Hotel Junction,5.527933900000001,-0.23425010000000002
4980974767,Ejas,5.528899000000001,-0.23175640000000003
4982950480,Abeka Lapaz (Nii Boi),5.6077389,-0.245237
4982950479,Achimota Overhead,5.6126652,-0.22639450000000003
2917277221,Abofu,5.613729,-0.22286770000000003
4982950478,CP,5.6145417,-0.21648910000000002
4982950477,Abelenkpe Junction,5.610252000000001,-0.21152100000000001
4982950476,Dzorwulu Junction,5.6071496000000005,-0.20709470000000002
4982950475,Ebony,5.604820600000001,-0.2035153
30778854,Roman Ridge 2nd,5.6018040000000004,-0.198887
4982950474,Pig Farm Junction,5.599891500000001,-0.1959488
4982950473,Accra Girls,5.5982415,-0.1934691
4982950472,Kankudi,5.5947696,-0.1885244
4982950471,Culture,5.593304000000001,-0.18524140000000003
4982950470,37 First Gate,5.5902669000000005,-0.1828992
4982950469,37 Last Stop,5.588439200000001,-0.17977240000000003
4982950468,El-Wak Stadium,5.587359,-0.17464280000000001
4983245621,Race Course,5.6141046,-0.2714308
4983237020,Gyedu Junction,5.6119558000000005,-0.26778100000000005
4983237019,Rasta Junction,5.6112754,-0.26610160000000005
4983237018,Attah Junction,5.6102493,-0.2653242
4983237017,Container Race Course,5.609058900000001,-0.26405140000000005
4983237016,School Junction Race Course,5.6082761,-0.2632488
4983237015,Race Course Blue Gate,5.607493300000001,-0.26239110000000004
4983237014,Ahenfie,5.606501000000001,-0.26094100000000003
4983237013,Tabora Number2,5.6060498,-0.2604171
5050514822,Tabora Number 3,5.6070688,-0.2586568
4983237011,Lapaz Market,5.607426500000001,-0.25718860000000004
4983237010,Lapaz Community Junction,5.606581,-0.2549457
5015015387,Lapaz Community Hospital,5.608840700000001,-0.2540407
5040372058,Lapaz Masalaashie,5.6098074,-0.2526918
4983237009,Lapaz Last stop,5.609496300000001,-0.2508921
4983237008,Lapaz Station,5.608079200000001,-0.24977800000000003
5014899357,Abeka Lapaz,5.6068813,-0.24973740000000003
4990644995,Abeka Lapaz,5.607209900000001,-0.24668650000000003
4990070173,Abeka Post Office,5.6040435,-0.24394880000000002
4990070172,Fadama Junction,5.6031976000000006,-0.24271240000000002
4990070171,Eno,5.602745400000001,-0.24197880000000002
4990070170,Fadama,5.601748000000001,-0.24079290000000003
4990070169,Abeka Main Market,5.600808600000001,-0.23930110000000002
4990070168,Free Pipe,5.5998619000000005,-0.23766450000000003
4990070167,Adom Junction,5.599568700000001,-0.23686420000000002
4990070166,Total,5.5980065,-0.23332150000000001
4990070165,Abeka Junction Curve,5.5993959,-0.2245869
4990070164,Abeka Junction,5.598924500000001,-0.2239655
4990070163,CAT,5.595180900000001,-0.22195760000000003
4990070162,Alajo,5.5879415,-0.21815520000000002
4990070161,Caprice,5.5839552,-0.2170401
4990070160,Circle Asoredanho,5.5756325,-0.2167254
4990070158,Circle,5.5697473,-0.21675950000000002
4990162109,Circle,5.5706712000000005,-0.2132909
4990163125,Circle Overhead,5.5701413,-0.21399130000000002
4990163124,Circle,5.5714604,-0.2158739
4990163123,Circle Asoredanho,5.5754508000000005,-0.2165312
4990163122,Caprice,5.5825335,-0.2166779
4990163121,Alajo,5.590913700000001,-0.21830320000000003
4990162120,Abeka Junction,5.5985513000000005,-0.2234973
4990162119,Abeka Junction Curve,5.599517700000001,-0.2247772
4990162118,Total,5.5981088,-0.23301290000000002
4990162117,Total Curve,5.598451300000001,-0.2336448
4990162116,Adom Junction,5.5996325,-0.23691340000000002
4990162115,Free Pipe,5.599799000000001,-0.23738710000000002
4990162114,Abeka Main Market,5.600798800000001,-0.23912970000000003
4990162113,Eno,5.602627000000001,-0.241571
4990162112,Fadama Junction,5.6030771,-0.2424967
4990162111,Abeka Post Office,5.603900500000001,-0.24359270000000002
4990162110,Abotare,5.6050751000000005,-0.24526970000000003
5027390605,Abeka Lapaz Last Stop,5.6060986,-0.2469156
4990252736,Abeka Lapaz,5.6091997000000005,-0.24760720000000003
4990252735,Fishpond,5.618564900000001,-0.24991470000000002
4286137016,St. Johns,5.6388495,-0.24243380000000003
4990252734,Family Life,5.6224046,-0.2484473
4990252733,Mile 7 T-Junction,5.626398900000001,-0.25059620000000005
4710912590,High Tension,5.616029,-0.24832510000000002
4990252732,Mile 7 Clinic,5.629669000000001,-0.24787360000000003
4990252731,Jesus and Mary,5.6308278000000005,-0.24607410000000002
4990252730,Masalaashi,5.6314823,-0.24519770000000002
4990252729,Mile 7 Park,5.632247100000001,-0.24416690000000002
4990252728,Presby Junction,5.6330591000000005,-0.2429117
4990252727,Mile 7 Junction,5.634208800000001,-0.24097380000000002
4990252726,Best Point,5.635315800000001,-0.24019840000000003
4990252725,Achimota Mall,5.637374500000001,-0.2414716
4990252724,Dome Market,5.642888,-0.23819630000000003
4990252723,Adehyeman,5.6455466,-0.23705080000000003
4990252722,Dome Crossing,5.647168300000001,-0.23652710000000002
4990252721,Dome Old Station,5.6516641000000005,-0.23742850000000001
4990251220,Dome Mobil / Filling Station,5.6539045,-0.23730250000000003
4990251219,Gym,5.656027900000001,-0.23729980000000003
4990251218,Born Again,5.657962800000001,-0.23734390000000002
4990251217,Dome New Station,5.660507600000001,-0.23734070000000002
4990251216,Atomic First,5.667248900000001,-0.23877180000000003
4990251215,Atomic Second,5.6685261,-0.23884740000000002
4990251214,Stores,5.6729747,-0.24037400000000003
4990251213,Point 1,5.6762328,-0.24129450000000002
4990251212,Point 2,5.677855500000001,-0.24192950000000002
4990251211,Mosuku Junction,5.6802783,-0.24274250000000003
4990251210,White House,5.6812955,-0.24319310000000002
4990251209,Oscar Junction,5.685321600000001,-0.24522610000000003
4990251208,Kwabenya Market,5.6882029,-0.2467967
4990251207,Kwabenya,5.690731100000001,-0.24775320000000003
4990423854,Atomic Second,5.6673996,-0.2389446
4990423853,Born Again,5.6578362,-0.23739610000000003
4990423852,Gym,5.655801100000001,-0.2373713
4990423851,Dome Old Station,5.651728100000001,-0.23746780000000003
4990423850,Dome Crossing,5.6476487,-0.23660630000000002
4990423849,Adehyeman,5.645424200000001,-0.23717080000000001
4990423848,Dome Market,5.643859000000001,-0.2378298
4990423847,St. Johns,5.639588900000001,-0.24217310000000003
4990423846,Tantra Hills,5.642922700000001,-0.2455149
4990423845,Mile 7 Junction,5.6345708000000005,-0.24050850000000001
4990423844,Presby Junction,5.6332792000000005,-0.24269190000000002
4990423843,Mile 7 Park,5.632293400000001,-0.24422470000000002
4990423842,Jesus and Mary,5.6306161,-0.246542
4990423841,Mile 7 Clinic,5.629719100000001,-0.2479542
4990423840,T-Junction Down,5.6282081,-0.2515079
4990423839,Mile 7 T-Junction Top,5.6263015,-0.2505813
4990423838,Family Life,5.6224777,-0.2485303
4990423837,Fishpond,5.618577500000001,-0.24996320000000002
4990423836,High Tension,5.6160195,-0.24840280000000003
4990423835,Nii Boi Station,5.613729500000001,-0.24524520000000002
4990423834,Container,5.612947,-0.24503170000000002
4990423833,MTN,5.6094268000000005,-0.2457398
4990644967,Sakumono,5.622623900000001,-0.0694091
4992365329,Washing Bay,5.6260281,-0.0820821
5012401320,Signboard,5.638088700000001,-0.10502090000000001
4992365328,Junction Wise,5.6431455,-0.1130497
4992365327,Printex,5.640231600000001,-0.12019550000000001
4992365326,Manet,5.6377043,-0.1265562
4992365325,Energy,5.630844000000001,-0.14338530000000002
4992365324,Flower Pot,5.6269062000000005,-0.1535764
4992365323,Vulgunizer,5.623111700000001,-0.1691149
4992365322,Accra Mall Roundabout,5.621017800000001,-0.17411140000000003
4461423012,Dzorwulu Junction,5.6184985,-0.1911487
4992650310,Azumah Nelson Complex,5.5750903,-0.2269653
4992650309,Green Hand,5.581973100000001,-0.23036160000000003
4992650308,Swanlake,5.585302400000001,-0.23170990000000002
4992650307,Swanlake Last Stop,5.5840598,-0.23399090000000003
4992783156,Neoplan,5.5695212000000005,-0.2185707
4992783155,Trasacco,5.6450566,-0.11768020000000001
4992783154,Ashaiman Overhead,5.682053400000001,-0.025778000000000002
4992783153,Tema Motorway Total,5.6826001,-0.013999500000000002
4400503912,Community 9,5.678981200000001,-0.0122552
4992783152,Community 8,5.673209900000001,-0.009931800000000001
3676894849,Community 7,5.6647008,-0.006229600000000001
3676894848,Community 4,5.658014100000001,-0.0035486000000000003
3676894846,Site 10,5.651037700000001,0.00024160000000000002
3676894839,Site 20,5.6474365,0.0022573000000000003
4992783151,Tema Main Harbour,5.6452868,0.0031339000000000002
4992880435,Tema Community One Market,5.645189,0.0012603
4981090360,Achimota New Station,5.621493,-0.22590580000000002
4994619136,Abelenkpe Curve,5.607529,-0.2157098
4994619135,Dua Ase,5.611163200000001,-0.2176868
4994619134,Junction,5.6127269,-0.2223419
5125226939,Achimota New Station,5.6219491,-0.22590100000000002
4994875972,Abeka Lapaz,5.6062795,-0.24817010000000003
4994875971,PnP Junction,5.5991258,-0.23570750000000001
4994875970,Adabraka Market,5.5630962,-0.2139185
4994875969,Roxy Cinema,5.557768500000001,-0.21244290000000002
4994875968,Accra UTC,5.5495887,-0.210626
4994958928,Accra UTC,5.546880000000001,-0.2099938
4994958927,Accra Poly,5.553486400000001,-0.20843000000000003
4994958926,Starlite,5.555962200000001,-0.2090847
4994958925,Champion,5.5572353,-0.209378
4994958924,Adabraka Market,5.563700000000001,-0.21106570000000002
4994958923,Mr. Biggs,5.5677653000000005,-0.21335340000000003
4994958922,Alajo,5.5887674,-0.21795530000000002
4994958921,Fitting Shop,5.599276000000001,-0.22617220000000002
4994957020,Abrantie,5.5987672,-0.22864560000000003
4994957019,Tesano Gardens,5.5984514,-0.23052570000000003
4994957018,Abeka Bcos Junction,5.598944,-0.23495330000000003
4994957017,Fadama,5.6016367,-0.24055310000000002
5058537144,Abeka Lapaz,5.606359500000001,-0.2481432
4995054816,Lands Commission,5.5851221,-0.17621830000000002
4995054815,GIS Curve,5.580008500000001,-0.175357
4995054814,Roundabout,5.576157,-0.17892870000000002
4995054813,Aquinas,5.574302500000001,-0.17944010000000002
4995054812,Prisons,5.5709122,-0.1803026
4995054811,Police Hospital,5.567810400000001,-0.1808304
4995054810,Koala,5.5661404,-0.18112620000000001
4995054809,Afridom,5.564834,-0.18134570000000003
4995054808,SNNIT,5.562771400000001,-0.1816047
4995054807,Papaye,5.5595692,-0.18222080000000002
4995054806,Osu Shell,5.5565974,-0.18268120000000002
4995054805,Presby School Junction,5.554982000000001,-0.18334940000000002
4995054804,Osu,5.554076,-0.18359330000000001
4995095768,Osu Shell,5.556260600000001,-0.18271830000000003
4995095767,Papaye,5.559748600000001,-0.1821385
4995095765,Penta Hotel,5.565364300000001,-0.18116480000000001
4995095764,Police Hospital,5.5679853,-0.1807361
4995095763,Prisons,5.5699664,-0.18040760000000003
4995095762,Morning Star,5.573419400000001,-0.17960310000000002
4995095761,Roundabout,5.5772212,-0.17811690000000002
4995095760,GIS,5.5814513,-0.17626750000000002
4995095759,Post Office,5.585344500000001,-0.17617580000000002
4995193048,Old Stop,5.587628700000001,-0.23287470000000002
4995193054,Masalakyi,5.5849443,-0.23165520000000003
4995193047,Green Hand,5.5820723,-0.23046280000000002
4995193053,Kaneshie Polyclinic,5.574338000000001,-0.2306941
4995193052,Roundabout,5.5720670000000005,-0.23115390000000002
4995193051,Social Welfare,5.568810200000001,-0.23432740000000002
4995193050,Kaneshie Last Stop,5.5662460000000005,-0.23400540000000003
4995193049,Kaneshie Market Station,5.5658238,-0.23524650000000003
4995587413,Second,5.596642600000001,-0.23333910000000002
4996743221,First Light,5.5662598,-0.2438616
4996742720,JT,5.562604200000001,-0.24544520000000003
4996742719,Flamingo,5.5589078,-0.24704080000000003
4996742718,Paa Willie,5.559503500000001,-0.25187780000000004
4996742717,Russia,5.5564032,-0.2514013
4996742716,Omanko,5.555906800000001,-0.253365
4996742714,Russia Station,5.554628600000001,-0.2546273
4996742715,Curve,5.555268900000001,-0.2547593
4996770218,Omanko,5.555796900000001,-0.25360720000000003
4996770217,Russia,5.5564131,-0.2510543
4996770216,Paa Willie,5.5595961,-0.251848
4996770215,Seventh Day Adventist,5.5591138,-0.24625800000000003
4996770214,JT,5.5626227,-0.24525650000000002
4996770213,First Light,5.5678938,-0.2426501
4996770212,Kaneshie,5.564567500000001,-0.2349515
4997066317,Adenta Station,5.706093200000001,-0.1656149
4997374736,Adenta Barrier,5.705790400000001,-0.17158520000000002
4997374735,Goil Filling Station,5.7000384,-0.17198690000000003
4997374734,SDA,5.6965301,-0.17203020000000002
4997374733,Assemblies,5.692931000000001,-0.17192890000000002
4997374754,Ritz First,5.6882045,-0.17167980000000002
4997374753,Ritz Second,5.6852441,-0.171546
4997374732,Redco,5.682145500000001,-0.1716386
4997374731,Madina Zongo Junction,5.6773746,-0.17358250000000003
4997374730,Fire Stone,5.6709335,-0.17569880000000002
4997374752,Atomic First,5.6684108,-0.1770169
4997374751,Atomic Second,5.6663817000000005,-0.17756210000000003
4997374750,Presec,5.661758700000001,-0.1783598
4997374749,UPS,5.659093400000001,-0.17895250000000001
4972575680,Power House,5.6560636,-0.18014770000000002
4972315121,Legon First,5.6536077,-0.18070770000000003
4740602043,Legon Second,5.648157500000001,-0.17986950000000002
4997374748,Legon Second Gate,5.6357626000000005,-0.1774611
4382426259,Shiashie,5.628405300000001,-0.17677130000000002
4150793105,Spanner,5.620506000000001,-0.1764853
4974194650,Shangrila,5.616069100000001,-0.1760971
4997374747,Airport First,5.608081800000001,-0.17724530000000002
4977927743,Airport Second,5.6041926,-0.17812240000000001
4974193122,Opeibea First,5.598010700000001,-0.1795113
4997374746,Opeibea Second,5.595258200000001,-0.18012150000000002
4997374745,37,5.5911748,-0.18105420000000003
4974193123,37 Hospital,5.587623000000001,-0.1831067
4997374744,37 Water Works,5.5825313,-0.18548950000000003
4997374743,Flagstaff House,5.5763685,-0.1881095
4997374742,TV3,5.5763199000000006,-0.18966840000000001
4286153107,GBC,5.573504600000001,-0.192666
4997374741,Mobil / Kanda Overhead,5.5741271,-0.19751670000000002
4184924289,Paloma,5.5720606,-0.2058868
4997374739,Equip,5.571123900000001,-0.2101909
4989366228,Circle Neoplan Station,5.5690587,-0.2182021
4997374738,Awudome Cemetery,5.5674149,-0.22340540000000003
4997374737,Pamprom,5.565631600000001,-0.2307635
4997810037,Methodist,5.534858300000001,-0.2444205
4997810036,Bamboi,5.5328628,-0.24623280000000003
4997810035,USA,5.5322769,-0.24837710000000002
4997810034,Lotto House,5.532464200000001,-0.2511647
4997810033,205,5.531960700000001,-0.25400350000000005
4997810032,Agege,5.531799100000001,-0.2549926
4997810031,Zone 6,5.5314411,-0.2575751
4997810030,Karikari,5.530981700000001,-0.26143550000000004
2026403679,Agege Last Stop,5.529319800000001,-0.2639939
4997810029,Atomic,5.527639000000001,-0.2659963
4997810028,Point 6,5.528276000000001,-0.2683841
4997810027,Ebenezer,5.5295119,-0.2698437
4997810026,Mamponse,5.52768,-0.2736519
4997931944,Atomic,5.5272151,-0.2664628
4997931946,Agege Last Stop,5.529133000000001,-0.2641792
4997931945,205,5.5319650000000005,-0.253574
4997931943,Bamboi,5.532778800000001,-0.24623150000000002
4998004819,Junction,5.534047,-0.24287670000000003
4998004818,JB Spot,5.531242000000001,-0.24761610000000003
4998004817,Mamprobi Alhaji Station,5.5309718000000005,-0.25041050000000004
5058534294,Mamprobi Alhaji Station,5.530924000000001,-0.25040900000000005
4998045794,Alhaji Junction,5.531201,-0.2476115
4998045790,Methodist,5.5344039,-0.24474420000000002
4998045793,Abodwe,5.5350600000000005,-0.24228650000000002
4998045792,Sempe Second,5.5375136000000005,-0.24007970000000003
4998045789,Sempe First,5.5385926,-0.23905790000000002
4998106219,Hubtel,5.5784909,-0.21579560000000003
4998106218,Avalley,5.580570600000001,-0.21583970000000002
4998106217,NDC,5.5792706,-0.21288730000000003
4998106216,Challenge,5.576912,-0.20972800000000003
4998106215,Obour Ba,5.578112000000001,-0.20758490000000002
4998106214,New Town,5.5827214000000005,-0.2084889
4999589687,Accra Mall,5.6235673,-0.1743056
4999589686,Abattoir,5.6622447000000005,-0.07139250000000001
4999589685,Washing Bay,5.685137,-0.0279198
4999589684,Ashaiman,5.686913700000001,-0.0327126
4971250982,Tetteh Quarshie / Roundabout,5.624024200000001,-0.1738463
4997374740,Nima Police Station,5.5742089,-0.20078780000000002
4999883667,Accra New Town Taxi Station,5.5815197,-0.20886980000000002
4999883666,Akoko Darko Junction,5.585158900000001,-0.2156386
4999883665,Caprice Taxi Station,5.5844696,-0.21727180000000001
5000179130,Dansoman Last Stop,5.5296970000000005,-0.2653083
2026403681,Dansoman Last Stop,5.530035900000001,-0.26530380000000003
5000179129,Kofi ne Ama,5.532457600000001,-0.2652411
5000179128,Seven Great,5.535234300000001,-0.26513230000000004
5000179127,Exhibition (Dansoman),5.537906400000001,-0.26474190000000003
5000179126,Dansoman Market,5.541113800000001,-0.2646057
5000179125,Dansoman Police Station,5.543526900000001,-0.26456870000000005
5000179124,Dansoman Control,5.545969500000001,-0.26454370000000005
5000179123,Sahara,5.550558700000001,-0.26451430000000004
5000179122,Beecham,5.5523658000000005,-0.264496
5000179121,Mama's Inn,5.554371000000001,-0.26447590000000004
5000176420,Dansoman Roundabout,5.556725500000001,-0.26462430000000003
5000176419,St. Martin Depores,5.559781600000001,-0.2651201
5000176418,Oxygen (o2),5.5612607,-0.2652062
5000176417,Ave Maria,5.5653597,-0.26874960000000003
5000176416,Thirteen,5.567615600000001,-0.270218
5000176415,Dela,5.570515800000001,-0.2712174
5000176414,Crystal,5.5761773,-0.2665905
5000176413,Busia Junction,5.5787991,-0.26729400000000003
5000176412,Cold Store,5.579427900000001,-0.26570170000000004
5000176411,Odorkor,5.5812246000000005,-0.26376150000000004
5058534311,Odorkor,5.5811887,-0.2639052
5000972549,Sakaman,5.5754152,-0.2743683
5000972548,Tantua School,5.5724371,-0.27278640000000004
5000972547,Sakaman Taxi Rank,5.5714297,-0.27220160000000004
5000972544,Dela,5.570865800000001,-0.27140240000000004
5000972543,Thirteen,5.5676582,-0.27031170000000004
5000972546,Ave Maria,5.564806000000001,-0.26818830000000005
5000972545,Oxygen (o2),5.561113300000001,-0.26524060000000005
5000972542,St. Martin Depores,5.5596502,-0.2652108
5000972541,Dansoman Roundabout,5.5572835000000005,-0.2648474
5000972540,Mama's Inn,5.5544064,-0.26459590000000005
5000972539,Beecham,5.552095800000001,-0.26462410000000003
5000972538,Sahara,5.5498053,-0.26464950000000004
5000972537,Dansoman Control,5.5462927,-0.2646542
5000972536,Dansoman Police Station,5.5440301000000005,-0.2646992
5000972535,Dansoman Market,5.5415133,-0.2647488
5000972534,Exhibition (Dansoman),5.5379947000000005,-0.2648883
5000972533,Seven Great,5.535671400000001,-0.2651739
5000972532,Kofi ne Ama,5.533045100000001,-0.26531340000000003
5000996592,Hansonic Taxi Rank,5.5747317,-0.25260720000000003
5000996591,Dansoman Asoredanho,5.570399200000001,-0.2553578
5000996590,Asoredanho Curve,5.567575400000001,-0.25763400000000003
5000996589,Wesley Grammar,5.566591600000001,-0.25851250000000003
5000996588,Akukofoto,5.5643918,-0.2600097
5000996587,Dansoman Polyclinic,5.5612946,-0.26023090000000004
5000996586,Dansoman First Stop,5.5604364,-0.2604443
5000996585,King Solomon,5.555251500000001,-0.26459580000000005
5000996583,Emmanuel Presby,5.5484033,-0.2646296
5001014673,Emmanuel Presby,5.548345,-0.26451080000000005
5001014676,MTN,5.5586785,-0.2613127
5001014671,Dansoman First Stop,5.5599771,-0.2601891
5001014670,Dansoman Polyclinic,5.5611411,-0.2601857
5001014675,Abomatte,5.562681400000001,-0.2601868
5001014669,Akukofoto,5.564628900000001,-0.25984640000000003
5001014674,Wesley Grammar,5.566852300000001,-0.25824450000000004
5001014668,Asoredanho Curve,5.5680446,-0.2565312
5001014667,Dansoman Asoredanho,5.5702303,-0.25540260000000004
5004847997,Sankara,5.5727986000000005,-0.1912203
3109289830,Odorna,5.567325500000001,-0.21732330000000002
3109291911,Circle,5.569608000000001,-0.21326650000000003
4184924189,Paloma,5.571721500000001,-0.20620800000000003
5004961004,Multi Choice,5.572547900000001,-0.2031773
2584775101,Mobil / Kanda Overhead,5.573801800000001,-0.1975096
5004961003,GBC First,5.5738953,-0.19374790000000003
5004961002,GBC Second,5.5730129,-0.1922124
5004961001,Police Headquarters,5.5703034,-0.1872735
5004961000,Fire Service,5.569301,-0.1854365
5004960999,Danquah,5.566987,-0.18258480000000002
5058537034,Osu,5.5540406,-0.1836113
5005030180,Accra New Tema Station,5.5486694000000005,-0.20112130000000003
5005030179,Tigo Office,5.558190400000001,-0.20556520000000003
5005030178,Cathedral,5.5635738,-0.20615400000000003
5005030177,Nima Police Station,5.5743983,-0.2007228
5005030176,Commandos,5.5803082,-0.2045886
5005030175,College,5.583489500000001,-0.2068106
5005030174,Commercial Bank,5.585366400000001,-0.2063164
5005030173,Curve,5.586500300000001,-0.2060519
5005030172,37 Station,5.586990200000001,-0.2075199
5005030171,Five Five,5.589639600000001,-0.20724050000000002
5005030170,Nkansah Gyan,5.590825400000001,-0.2064931
5005030169,Taxi Rank,5.5919778,-0.20545960000000002
5005030168,Tobinco Junction,5.5933223000000005,-0.2062882
5005030167,Kotobabi Down,5.5956831000000005,-0.2094022
5005192349,Tobinco Junction,5.593276,-0.20631420000000003
5005192352,Dance Bar,5.566038000000001,-0.21470430000000001
5005192351,Kingsway,5.5533660000000005,-0.21123150000000002
5005192350,Railways,5.552274100000001,-0.21100480000000002
5058534290,Accra New Tema Station,5.5486693,-0.20105130000000002
4150793106,Spanner,5.6204153,-0.17613450000000003
2581150583,Shiashie,5.6276839,-0.17643550000000002
4981090374,Okponglo,5.641341100000001,-0.1780914
4981090380,Legon First,5.6489286000000005,-0.1795016
4740602037,Legon Second,5.651883700000001,-0.17999150000000003
4997071027,UPS,5.660702100000001,-0.17824020000000002
5005343802,Presec,5.6625534,-0.17783090000000001
4997071026,Atomic First,5.6662381,-0.1770577
4997071025,Atomic Second,5.667980600000001,-0.17663410000000002
4997071024,Fire Stone,5.671295100000001,-0.1751118
4997071023,Madina Zongo Junction,5.675356600000001,-0.1737787
5005343801,Madina,5.6766804,-0.1716389
5058537032,Circle,5.5697217000000006,-0.21735680000000002
4997071030,Sue's Inn,5.610703200000001,-0.2327094
5007828431,Akweteyman,5.6110956000000005,-0.23176700000000003
4997071029,GSL,5.6168459,-0.19925630000000003
3073421167,Dzorwulu Junction,5.617344500000001,-0.19444730000000002
4997071028,Airport Junction,5.621950600000001,-0.1794792
5007828435,KICC,5.6541208,-0.0953075
5007828434,18 Junction,5.6605594,-0.075648
5007828433,Ashaiman Traffic Junction,5.686484900000001,-0.029004900000000004
5007828432,Ashaiman Police Station,5.687541,-0.0309992
5007960687,Ashaiman Overhead,5.6826122,-0.025555200000000004
5008220727,St. Anthony School,5.6194047000000005,-0.25007690000000005
5008220722,unnamed,5.6422381,-0.24980490000000002
5008220726,Taifa Junction,5.6493606000000005,-0.25161160000000005
5008220725,Airport,5.653315200000001,-0.25272340000000004
5008220724,Daavi,5.655122800000001,-0.2524653
5008220723,Taifa,5.658388800000001,-0.252853
5008338675,Junction,5.6528315000000005,-0.2524811
5008338671,Taifa Junction,5.649511700000001,-0.2524267
5008338674,Ofankor Barrier,5.657664400000001,-0.26547010000000004
5008338672,Pharmacy,5.6239036,-0.24906480000000003
5008528043,Site 7,5.652834,-0.0008416000000000001
5008553424,CP,5.615744200000001,-0.2118865
5008589266,John Teye,5.667329700000001,-0.270424
5008589265,ACP Junction,5.6842486,-0.2773301
5008589264,Pokuase Junction,5.6877852,-0.2819882
5008589261,Festus,5.6931058000000005,-0.28858160000000005
5008589263,Fusi Junction,5.698379300000001,-0.2919485
5008589262,Amasaman,5.7049276,-0.2976051
5008612827,Amasaman,5.7055265,-0.2982925
5008612823,Fusi Junction,5.6982008,-0.29215430000000003
5008612824,Pokuase Junction,5.6871806000000005,-0.281644
1986177611,ACP Junction,5.683980000000001,-0.27766090000000004
5008612825,John Teye,5.6691212,-0.27114180000000004
5008338673,Taifa Junction,5.6483787,-0.25122710000000004
5010113616,Abrantie,5.605150200000001,-0.2527586
5010113614,Kata,5.6022547000000005,-0.2595904
5010113613,Hong Kong,5.6012928,-0.261077
5010113615,Kwashieman Junction,5.5941616000000005,-0.26685430000000004
4752766522,Been To,5.587388600000001,-0.27171720000000005
5010113612,Vineyard,5.585956800000001,-0.27294290000000004
5010113611,Water Works,5.579802300000001,-0.2779412
4739884021,Mallam Junction,5.569834200000001,-0.285949
4739843023,McCarthy Junction,5.5655092,-0.288941
5008726851,unnamed,5.564155700000001,-0.28955450000000005
4752773021,Mendskrom,5.558335100000001,-0.29718310000000003
5008691263,Weija Junction,5.5559137000000005,-0.3038519
5008691262,Tetegu,5.553940300000001,-0.3096742
5008691261,Weija Barrier,5.551034100000001,-0.33028070000000004
5010113610,Block Factory,5.5488949000000005,-0.33548330000000004
5010113609,SCC,5.5475403000000005,-0.3387368
5008691260,Shoprite,5.546393600000001,-0.34207600000000005
4600181749,Bortianor,5.5477904,-0.34821810000000003
5010113604,Ayigbe Town,5.5502324000000005,-0.35383030000000004
5008691259,Mile Eleven,5.5509516,-0.35565820000000004
5008691258,Broadcasting,5.5522963,-0.3589589
5010113603,Tuba,5.546831900000001,-0.38271970000000005
5010113608,Chinese,5.5434112,-0.38978050000000003
5010113607,Brigade,5.5410814,-0.394647
5008691257,Galelia,5.539073800000001,-0.3988882
5010113602,Galelia Market,5.5382376,-0.4013765
5008691256,Washing Bay,5.5368843000000005,-0.40629460000000006
5008691255,Iron City,5.5357802000000005,-0.41095790000000004
5010113606,Amanfrom,5.5356917,-0.41281640000000003
5008691254,Pink FM,5.5356813,-0.4163409
5010113605,Second,5.535539300000001,-0.41895440000000006
5008691252,Kasoa,5.5347882,-0.42379530000000004
5008726867,Kasoa,5.534303800000001,-0.4242906
5008726858,Amanfrom,5.535452500000001,-0.41248890000000005
5008726855,Washing Bay,5.5364583000000005,-0.4066658
5008726866,Galelia Market,5.5381989,-0.40057260000000006
5008726854,Galelia,5.538973100000001,-0.39845690000000006
5008726853,Brigade,5.5405429,-0.3951585
4740602044,Tuba,5.546819,-0.38199910000000004
5008726865,Broadcasting,5.5519072000000005,-0.35849570000000003
4740601928,Mile Eleven,5.550821600000001,-0.3559126
5008726864,Ayigbe Town,5.549634,-0.35307390000000005
4740601929,Bortianor,5.5474959,-0.3481346
5010154464,Shoprite,5.5462353,-0.3416524
5008726852,SCC,5.5473118,-0.3385323
4740682127,Weija Barrier,5.5511501,-0.32923430000000004
5008726863,Modex,5.5530226,-0.3224709
5008726862,Tetegu,5.5539141,-0.3088674
5289574722,Jayeemens,5.5605998,-0.2913583
5008726850,Benjy's Lodge,5.564107000000001,-0.28923530000000003
5008726861,McCarthy,5.5670112000000005,-0.2879177
4740682125,Mallam Junction,5.5690758,-0.2861767
5010154455,Water Works,5.579547600000001,-0.2778165
5010154465,Vineyard,5.5821908,-0.2755232
5008726860,Kwashieman,5.589386200000001,-0.2698644
5008726859,Hong Kong,5.599321000000001,-0.2627026
5008726849,Nyamekye,5.602337400000001,-0.2588385
3154428908,Abrantie,5.605223700000001,-0.25168260000000003
5009934987,Ofankor Barrier,5.6576107,-0.2647851
5009934986,unnamed,5.710619400000001,-0.30339510000000003
5009934992,Toman,5.7122526,-0.3050504
5009934985,Shikpontele,5.7182617,-0.3084731
5009934991,Sarpeiman,5.7256372,-0.3110896
5009934984,Macedonia,5.729980500000001,-0.3124036
5009934983,unnamed,5.732165,-0.31300310000000003
5009934982,Kontunse,5.741685800000001,-0.31599910000000003
5009934973,Satellite,5.7466844,-0.3186102
5009934990,Medie,5.7619486,-0.32598000000000005
5009934989,School Junction,5.7413620000000005,-0.35497870000000004
5009934988,Kotokou,5.740107200000001,-0.35681330000000006
5009983533,Medie,5.7605595,-0.3257936
5009983532,Kontunse,5.740908800000001,-0.315983
5009983531,Sapeiman,5.7287391,-0.3123328
5009980412,Sapeiman,5.725743100000001,-0.3113924
5009983530,Agya Appiah,5.7158309,-0.30745290000000003
5009983529,Toman,5.711449900000001,-0.3047502
5009983528,Festus,5.691787100000001,-0.28752500000000003
5010252541,Roman,5.6341761,-0.25082600000000005
5010252540,Tantra Resevoir,5.641581100000001,-0.2506602
5010252539,Tantra Hills,5.6460553,-0.24727120000000002
5010252538,Spot M,5.654124,-0.25970560000000004
5010252537,Income Tax,5.6563004,-0.2629554
5010252535,Agya Herbal,5.6726545,-0.2717255
5010303806,Agya Herbal,5.672374100000001,-0.2719572
5010303805,Income Tax,5.6545791,-0.26117880000000004
5010303814,Spot M,5.652973500000001,-0.2586521
5010303813,Tantra Hills,5.6447897000000005,-0.24708180000000002
5010303812,Tantra Reservoir,5.641654900000001,-0.2506472
5010303811,Washing Bay/Tantra Hills Estate,5.6361666,-0.2506448
5010303810,Roman,5.634460300000001,-0.2508666
5010303809,Rasta Park,5.632571700000001,-0.251604
5010303808,Alhadji No Front,5.6166925,-0.24905420000000003
5010303807,Links Garden,5.614802200000001,-0.24666540000000003
5011901717,Pharmacy,5.623917100000001,-0.2490255
5011901716,Dome,5.645155300000001,-0.23722130000000002
5011961069,School Junction,5.625861400000001,-0.25023900000000004
5012075059,Home Touch,5.587133000000001,-0.1681506
5012075058,Villas,5.578248800000001,-0.15437640000000002
4400503928,Palm Wine,5.5764716000000005,-0.1525381
5010786355,Kpogas,5.5731197,-0.15020830000000002
5012075057,Trade Fair,5.569156,-0.1474347
5012075056,La Beach Hotel,5.5643143,-0.138769
5012075055,Kofi Annan,5.5738488,-0.1126033
5012075054,First Junction,5.5874950000000005,-0.09943420000000001
5012075053,Brigade,5.593783,-0.08882780000000001
5012075052,Cold Store,5.5958154,-0.085651
5012075051,Nungua,5.602229200000001,-0.0791144
5012402221,Kpogas,5.635367800000001,-0.10097690000000001
6681261144,Kasapreko,5.6425491,-0.1099423
7122766827,Coke,5.6433312,-0.11080970000000001
5012401319,Blue Gate,5.642410300000001,-0.11479120000000001
5008691253,Abeka Lapaz,5.607984500000001,-0.2465044
4997066314,PnP Junction,5.5992202,-0.23579100000000003
5013078307,Abossey Okai,5.5604845,-0.22992160000000003
5013078306,Total,5.559465100000001,-0.23050610000000002
5013078305,Ayigbe Town,5.553840900000001,-0.23146880000000003
5013078304,Mortuary,5.543035400000001,-0.22649950000000002
5013078303,Junction,5.537855700000001,-0.22196140000000003
5013078302,Korle-Bu Barber,5.5369187,-0.22332710000000003
4979396673,Korle Bu,5.5361206,-0.22705170000000002
5013078301,Korle Bu,5.5358482,-0.23080350000000002
4979349924,Korle Bu,5.5361606000000005,-0.22641470000000002
5013113666,Mortuary,5.543159800000001,-0.22634020000000002
5013113665,Total,5.558169800000001,-0.2310193
4997071032,Old Stop,5.5875218,-0.2327239
4997071031,Sunlight,5.589739000000001,-0.23203740000000003
5014716659,Abeka Total,5.597953,-0.23356250000000003
5014716658,Mesco,5.5907051,-0.2299199
5014716657,Melcom,5.5879449,-0.22693320000000003
5014716656,Ashfoam Junction,5.582849,-0.22411430000000002
5014716655,Fan Milk Junction,5.573194300000001,-0.22284720000000002
5014716654,Circle Industrial Area,5.5692159000000006,-0.2194154
5014786532,Fan Milk Junction,5.5727399,-0.22269250000000002
5014786531,Ashfoam Junction,5.5823796,-0.22386480000000003
5014786530,Melcom,5.5878478000000005,-0.2267337
5014786529,Abeka Total,5.5977942,-0.23350070000000003
5014899356,FanMilk Junction,5.6218988,-0.29922540000000003
5014899355,Ablekuma,5.6272416000000005,-0.31022180000000005
5014899354,Ablekuma Curve,5.6271443,-0.3119583
5014899353,Pentecost Junction,5.625511500000001,-0.30690080000000003
5014899352,Block Factory,5.622194500000001,-0.30584570000000005
5014899351,Container,5.6199694000000004,-0.3069432
5014899350,Pentecost,5.619273400000001,-0.3087766
5014899349,Offtown,5.617831400000001,-0.3104681
5014899348,Tarrazzo,5.6159829000000006,-0.3120117
5014899347,Waakye,5.6091768,-0.32798400000000005
5014899346,Agape,5.6092164,-0.32954900000000004
5015015404,Jericho,5.6087841,-0.32550680000000004
5015015403,Second Container,5.608677500000001,-0.3231994
5015015402,Park,5.608979100000001,-0.31806
5015015401,Agape Stop,5.612677400000001,-0.3148843
5015015400,Masalaashi,5.6141756,-0.31345280000000003
5015015399,Offtown,5.6177285,-0.31046680000000004
5015015398,Pentecost,5.618984500000001,-0.30901480000000003
5015015397,Pentecost Junction,5.625011100000001,-0.306518
5015015396,FanMilk Junction,5.6214767000000005,-0.29930340000000005
5015015395,Mawulolo,5.626723200000001,-0.2948661
5015015394,VRA,5.6311431,-0.2928328
5015015393,Mambo,5.6310887,-0.2856578
5015015392,Sowutuom Last stop,5.6249418,-0.2839341
5015015391,Sowutuom Market,5.620039800000001,-0.27684580000000003
5015015390,Sowutuom Chopbar,5.6174039,-0.2763563
5015015389,Dega Junction,5.615243,-0.2756813
4983237012,Tabora Number 3,5.6072264,-0.25860530000000004
5020021372,Achimota Old Station,5.615163600000001,-0.22898240000000003
5020021371,Achimota Overhead,5.6199311000000005,-0.2303119
5020021370,Neoplan,5.6240908,-0.2329536
5020021369,ABC Junction,5.6291763,-0.23629480000000003
5020021368,Mile 7,5.634451100000001,-0.23966540000000003
5020021367,unnamed,5.7231592000000004,-0.31034520000000004
5020021366,Pobiman,5.7352477,-0.31381790000000004
5020102839,Macedonia,5.736266700000001,-0.3143962
5020102838,Shikpontele,5.7186596000000005,-0.30890700000000004
5020102837,Chop bar,5.708700800000001,-0.3008247
5020102832,St. Johns,5.6398999000000005,-0.2435942
5020102836,Mile 7,5.633939000000001,-0.2397776
5020102835,Neoplan,5.626307700000001,-0.23486680000000001
5020102834,Achimota Overhead,5.623412300000001,-0.23281250000000003
5020102833,Achimota Old Station,5.6154576,-0.22949490000000003
5020282546,Accra End of the Motorway,5.627348100000001,-0.176012
3133741256,Bawaleshie Second,5.642098300000001,-0.164944
5020282545,Brewa,5.642374800000001,-0.16173040000000002
5020282544,American House,5.6475723,-0.15007240000000002
5020282543,Adjringanor/Otanor,5.6467064,-0.1345249
5058537126,Adjringanor/Otanor,5.646778500000001,-0.1345711
5020395232,American House,5.648353900000001,-0.15068450000000003
5020395234,Bawaleshie Second,5.6418746,-0.1673192
5020525325,WAEC,5.5647504,-0.1994537
5020525329,Ridge Hospital,5.5612149,-0.19904460000000002
5020525327,Circle,5.5688481,-0.2148315
5005192353,Commercial Bank,5.5683543,-0.21529240000000002
4977985923,Agbogba Junction,5.667379,-0.1880947
5021004854,St John's Second,5.6415091,-0.24413410000000002
5021041012,Ofankor Taxi Rank,5.658170500000001,-0.266959
5021004852,Phobia,5.6589448,-0.27120950000000005
5021004851,Market,5.658407400000001,-0.27535390000000004
5021004850,1st Power,5.658122700000001,-0.27667650000000005
5021004849,2nd Power,5.657863900000001,-0.2780861
5021004848,Soldier Line,5.657451900000001,-0.2795708
5021004847,Abodwe Se,5.656574300000001,-0.28172630000000004
5021004846,Presby,5.6549402,-0.28362930000000003
5021004845,Asofan School Juntion,5.654395,-0.2848819
5021004844,Asofan Old Station,5.653989500000001,-0.2861017
5021004843,Jojo Water,5.651132700000001,-0.2850616
5021004842,Chairman,5.6492683,-0.2860262
5021004841,Asofan Block Factory,5.647350200000001,-0.28685200000000005
5021004840,Transformer,5.6470684,-0.2889648
5021004839,Curve,5.6470345,-0.2901329
5021004838,Pentecost Station,5.6461724,-0.2902254
5021004837,Abe Asi,5.645239,-0.29084750000000004
5021004836,Royco,5.643878000000001,-0.29260790000000003
5021004835,Asofan New Station,5.6434835,-0.29351340000000004
5058537134,Asofan New Station,5.6434386000000005,-0.2935054
5021041020,Royco,5.643733600000001,-0.29278730000000003
5021041019,Pentecost Station,5.6461268,-0.29035350000000004
5021041018,Curve,5.647084100000001,-0.2898429
5021041017,Asofan Block Factory,5.647124400000001,-0.2868522
5021041724,Chairman,5.648865000000001,-0.2861678
5021041723,Jojo Water,5.650777100000001,-0.2848142
5021041722,Asofan Old Station,5.6539463,-0.2860496
5021041016,Asofan School Juntion,5.6543416,-0.28484420000000005
5021041015,Presby,5.654820000000001,-0.2837851
5021041014,Soldier Line,5.6569373,-0.28072670000000005
5021041013,Market,5.658309300000001,-0.2755655
5021041721,Phobia,5.6588532,-0.27148690000000003
5021041011,Ofankor Taxi Rank,5.657961,-0.2671199
5021041010,ABC Junction,5.6288679,-0.23654930000000002
4981090366,Achimota Club House,5.622088100000001,-0.21924510000000003
4981090375,PWD,5.6240003000000005,-0.21888710000000003
4981090361,Achimota Hospital,5.627500400000001,-0.21914150000000002
4981090369,Golf Park,5.6309218,-0.21883310000000003
5021998663,Parakuo,5.6418508,-0.22188220000000003
5021998662,Dome Pillar 2,5.653169200000001,-0.2167042
5022007557,Container,5.6429724000000006,-0.2232849
5022007556,Parakuo,5.641774300000001,-0.2218758
5022007555,Christian Village Jucntion,5.635154600000001,-0.2149328
5022007553,Achimota Hospital,5.6270468000000005,-0.2188334
5022007554,Six Pillars,5.621031400000001,-0.2234181
5022186336,JT,5.5647406,-0.245349
5022186335,Peace Clinic,5.5660382,-0.24736350000000001
5022186334,Mataheko Police Quarters,5.567446100000001,-0.24983300000000003
5022186333,Mataheko Pharmacy,5.568473000000001,-0.25134860000000003
5022186332,1 plus 1,5.569999500000001,-0.25361350000000005
5022186331,Curve,5.5724834,-0.2544244
5022186330,Vice,5.573091600000001,-0.2555019
5022186329,Lotto Kiosk,5.573356700000001,-0.2578471
5022186328,Pentecost,5.5732207,-0.2604247
5022186327,Yellow Kiosk,5.5731576,-0.26177680000000003
5022186326,Saint Anthony,5.572824700000001,-0.2641928
5022186325,Masalachi,5.5723102,-0.26579270000000005
5022186324,Bola,5.571829,-0.26740060000000004
5022186323,All Days,5.571526800000001,-0.26868580000000003
5022186322,Blue Lagoon,5.5715646,-0.2708123
5022186321,Alaba,5.564034800000001,-0.2705688
5022185720,SSNIT Flats,5.5633137,-0.27324430000000005
5022199348,Las Palmas,5.606893800000001,-0.24905040000000003
4990070174,Abeka Lapaz,5.6064091000000005,-0.24907440000000003
5022383973,Lapaz Market,5.608503600000001,-0.24091330000000002
5022383976,Flat Top,5.6090333,-0.23808010000000002
5022383975,Achimota Overhead,5.6120523,-0.22770450000000003
5022383974,Achimota Old Station,5.616391200000001,-0.22939510000000002
5022509213,Zambrama Line,5.5496153,-0.25704390000000005
5022509212,Akoo Store,5.5497411,-0.25522490000000003
5022509211,Mango Down,5.5428385,-0.2565153
5022509210,Banana Inn,5.5418646,-0.255041
5022509209,Banana Inn Transformer,5.540829400000001,-0.25320180000000003
5022509208,St.Marys,5.5386984,-0.2490921
5022509207,Akoshi Junction Mamprobi,5.5355357000000005,-0.24636360000000002
5022509206,Mamprobi Methodist,5.535064,-0.24385640000000003
5022509205,Mamprobi Post Office,5.5338358,-0.23704630000000002
5022509204,Awotsɛ Kojo,5.534794400000001,-0.2327288
5022509203,Total,5.5355965000000005,-0.22885170000000002
5022509202,Korle-Bu Barber,5.5368763,-0.22284910000000002
5022509201,UTC,5.5380858,-0.21721290000000001
5022509200,Agbado,5.5386122,-0.21585820000000003
5022509198,Arena,5.545529800000001,-0.21535150000000003
5022509197,Agbobloshie 2,5.5484154000000006,-0.21830460000000002
5022942961,Agbogbloshie,5.5499675,-0.21635920000000003
5022942960,Total,5.5356418000000005,-0.22895680000000002
5022942959,Awotsɛ Kojo,5.5348332000000005,-0.23297170000000003
5022942958,Plaza,5.5342777000000005,-0.2354874
5022942957,Mamprobi Shell,5.5337434000000005,-0.23781320000000003
5022942956,Rainbow,5.534254000000001,-0.24083510000000002
5022942955,Mamprobi Methodist,5.535114600000001,-0.243822
5022942954,Akoshi Junction Mamprobi,5.5356312,-0.24625570000000002
5022942953,IBE,5.5390553,-0.24778550000000002
5022942952,Abodoo Bridge,5.540032600000001,-0.25158060000000004
5022942951,Banana Inn,5.5418314,-0.25479880000000005
5022942950,Borla,5.544120700000001,-0.254174
5022942949,Masalatsi,5.5456878000000005,-0.25406880000000004
5022942948,Five Five,5.5469124,-0.2540345
5022942947,Station,5.547005400000001,-0.2552394
5022942946,Zambrama Line,5.5496889000000005,-0.25734850000000004
5013249863,Abeka Lapaz,5.6069414,-0.24910350000000003
5022982313,unnamed,5.593589700000001,-0.2689553
5041513171,Santa Maria,5.6057714,-0.2756832
5022982311,Junction,5.611736400000001,-0.28327860000000005
5022982310,Antie-Eku Pallas Town,5.612669100000001,-0.28479540000000003
5022991850,Santa Maria Blue Kiosk,5.5993618000000005,-0.27268790000000004
5022991849,Kwashieman Junction,5.5925846,-0.2684594
5013249864,Kwashieman,5.5922469,-0.26786350000000003
5023043423,Tema Station Union of GPRTU,5.5487001000000005,-0.2007546
5023043422,Court,5.544435600000001,-0.20435000000000003
5023043421,Post Office,5.5422115000000005,-0.2085836
5023043120,Agbado,5.5385914000000005,-0.21590850000000003
5023043119,UTC,5.5380377,-0.21835890000000002
5023052029,Champion,5.6425907,-0.24934540000000002
5023052028,Assemblies,5.6588991,-0.2722296
5023072587,Abodoo Bridge,5.5396514,-0.2511376
5023072586,IBE,5.5390310000000005,-0.24738160000000003
5023072585,Abodwe,5.5346365,-0.2423192
5023072584,Rainbow,5.5339757,-0.24006030000000003
5023072583,Plaza,5.534033300000001,-0.23617890000000002
5023072582,New Station,5.5354204000000005,-0.2298012
5023072581,Lighthouse,5.533586700000001,-0.2117042
5023072580,Accra Bishop,5.5439312,-0.20451300000000003
5023802914,Abeka Lapaz,5.605819,-0.24941320000000003
5023802913,Fadama Junction,5.597573700000001,-0.25413050000000004
5023802908,Alafia,5.592935000000001,-0.2524053
5023802907,Circle Station,5.5902909,-0.251954
5023802905,unnamed,5.5834631,-0.25170390000000004
5023802911,Atico,5.5807929000000005,-0.24605690000000002
5023802897,unnamed,5.5819888,-0.24353320000000003
5023802910,Pharmacy,5.580968800000001,-0.24089370000000002
5023802909,Bubuashie,5.5802895,-0.23988510000000002
5023989072,First Stop,5.5496452000000005,-0.18893000000000001
5023989071,Second Stop,5.5506085,-0.18424920000000003
5023989070,Anoorhor,5.5507254,-0.1822167
5023989069,Osu Police Station,5.552228800000001,-0.17815960000000003
5023989068,Rigal Bus stop,5.5530856,-0.17586020000000002
5023989067,Arko Adjei,5.5548222,-0.1708001
5023989066,Curve,5.5558937,-0.16792980000000002
5023989065,Polyclinic,5.556384100000001,-0.16661130000000002
5023989063,Total,5.5591382000000005,-0.15999980000000003
5023989062,Maami,5.5626208,-0.14940460000000003
5023989061,Nmotsaanaa,5.559775800000001,-0.1563093
5023989060,Police Station La,5.5613583,-0.1531135
5023989059,Agus,5.5633682,-0.15228270000000002
5023989058,Auntie Otsoo,5.5640919,-0.1514542
5023989057,New Life,5.5663621,-0.1499365
5023989056,Akrowa House,5.567720400000001,-0.1490874
5023989055,Trade Fair (La),5.5689028,-0.1483209
5024042173,Darkuman Station,5.5891697,-0.251327
5024042172,Masalatsi,5.5827543,-0.25160730000000003
5024042175,Fadama Junction,5.5974525,-0.25397580000000003
3154441074,Mampong,5.601588700000001,-0.25591850000000005
5024234906,Market,5.552810200000001,-0.2370074
5024234905,Junction,5.5561071,-0.24327940000000003
5024234904,La bay,5.5556787000000005,-0.24685830000000003
5024234903,Banku Junction,5.553776900000001,-0.24755040000000003
5024234902,Borla Junction,5.550931100000001,-0.24761840000000002
5024234901,Sukura,5.550621700000001,-0.24929430000000002
5024303420,One Way,5.537028500000001,-0.21024720000000002
5024303419,Ussher Fort,5.538340900000001,-0.20892800000000003
5024320813,Container,5.6129948,-0.24498160000000002
5024322030,T-Junction,5.626928700000001,-0.2516221
5024322029,Vulcanizer,5.6378257000000005,-0.25068490000000004
5024320803,Pokuase Junction,5.6873361000000004,-0.2813242
5024322028,Pokuase Old Station,5.690802100000001,-0.28309460000000003
5024322027,Pokuase Agric,5.6962488,-0.28646580000000005
5024322026,Quarters Junction,5.6982578,-0.2855397
5024322025,Thank You Jesus,5.70851,-0.28688850000000005
5024322024,Afiaman Pamprom,5.709964200000001,-0.2864823
5024322023,White House,5.7147037,-0.28367770000000003
5024322022,Alosa,5.7160821,-0.28309910000000005
5024322021,Agbodji,5.718003400000001,-0.281594
5024320820,New Life,5.7192628,-0.2806421
5024320819,Osofo Ama,5.7226657,-0.2782642
5024320818,Fase Junction,5.723900400000001,-0.2770536
5024320817,Mayera Market,5.726219500000001,-0.2765037
5024320816,Okaiman Junction,5.728415300000001,-0.2758552
5024320815,Adusah Quarters,5.732508500000001,-0.27268380000000003
5024320814,Mayera/Adusa,5.7356167000000005,-0.27185040000000005
5024437372,Tabora Alhaji,5.628027100000001,-0.26171690000000003
5024437366,Tabora Number2,5.6060211,-0.2599497
3154321446,Tabora Number 1,5.6037223,-0.2578491
2815791263,Nyamekye,5.602896200000001,-0.256375
5024437371,Post Office,5.5819757,-0.2513445
5024437370,Bishop,5.5720977000000005,-0.23892460000000001
5024437369,Mighty Power,5.5702616,-0.23752340000000002
5024437368,Ekutu Junction,5.568497700000001,-0.23703470000000001
5024569732,Adusah Quarters,5.732782800000001,-0.2726673
5024569744,Adusah Block Factory,5.7320935,-0.2730378
5024569743,Okaiman Junction,5.7287531000000005,-0.27570130000000004
5024569742,Mayera Market,5.726426300000001,-0.27649320000000005
5024569731,Fase Junction,5.7242446000000005,-0.27690420000000004
5024569730,Osofo Ama,5.722737400000001,-0.27828390000000003
5024569741,New Life,5.7196423,-0.280501
5024569740,Agbodji,5.718194100000001,-0.281523
5024569739,Alosa,5.716093600000001,-0.2831561
5024569738,Afiaman Pamprom,5.710420200000001,-0.2862503
5024569728,Thank You Jesus,5.708569000000001,-0.2869166
5024569737,Quarters Junction,5.702118800000001,-0.2856148
5024569727,Pokuase Agric,5.696375300000001,-0.2864204
5024569736,Pokuase Old Station,5.691597600000001,-0.283791
5024569735,Pokuase New Station,5.687738,-0.2815614
5024569734,Pokuase Junction main Road,5.686393400000001,-0.28069730000000004
5024569726,Champion,5.642642500000001,-0.24939680000000003
5024569725,Vulcanizer,5.6379909,-0.2507324
5024569733,Washing Bay,5.6308391,-0.25294910000000004
5024610772,Circle Station,5.590927000000001,-0.252216
5024610771,Alafia,5.5934577,-0.25221750000000004
5024610770,Tabora Number 1,5.603693700000001,-0.25771340000000004
5015015388,Tabora Number2,5.606045600000001,-0.2598571
5024610769,Tabora Number 4,5.608870400000001,-0.2603914
5024610768,Tabora Number 5,5.6103886,-0.2611895
5024610767,Tabora Number 6,5.6122106,-0.26105520000000004
5024610766,Scorpion,5.6157148,-0.26068600000000003
5024610765,Tabora Lighthouse,5.6169655,-0.2610403
5024610764,Tabora Junction,5.6193489,-0.2618847
5024610763,Tabora Asoredanho,5.6214484,-0.26261650000000003
5024610762,Star Junction,5.622279000000001,-0.26176570000000005
5024610761,Taste,5.6234649,-0.26199720000000004
5024610760,Walaako,5.625049400000001,-0.2621465
5024610759,Alhaji Curve,5.6264422000000005,-0.2617379
5058536168,Tabora Alhaji,5.628010400000001,-0.26165950000000004
5024693063,Agbado,5.5387082,-0.2163064
5024693062,Junction,5.541773600000001,-0.21773430000000002
5024693061,Arena,5.5451949,-0.21586300000000003
2917271600,Tesano,5.604561,-0.22595440000000003
5024762426,Bayport,5.5760332,-0.20875710000000003
5024762425,PIWC Accra,5.574467800000001,-0.20837550000000002
5024762424,Afridom,5.565038700000001,-0.18197190000000002
5024762423,SSNIT,5.563007700000001,-0.18231440000000002
5024785670,Mental,5.562631400000001,-0.20456670000000002
5024785675,Caprice Juntion,5.581377900000001,-0.2158519
5024785674,Tesano Police Station,5.6031436,-0.225585
2961496543,Tesano,5.6041936,-0.22565920000000003
5024785673,Total,5.609009400000001,-0.22664610000000002
5024785672,Pokuase-Amasaman Station,5.6095630000000005,-0.24717550000000002
5058536170,Arena,5.5452615000000005,-0.21589770000000003
4985315422,Accra Royal,5.5380444,-0.22177990000000003
5025015474,Laskia,5.5563944,-0.23556990000000003
5025015473,Great Lamptey,5.556778100000001,-0.23720410000000003
5025015472,Zongo Junction,5.557589800000001,-0.24076500000000003
5025015471,Flamingo,5.5580445,-0.24651460000000003
5058534299,Appiah Danquah/Soko,5.5451981,-0.25240260000000003
5025202270,Akoto Lante,5.5388694,-0.21312270000000003
5025202269,Accra Post Office,5.5405002,-0.20898570000000002
5025249684,Premier,5.5429921,-0.24483590000000002
5025249683,Soko Junction,5.5453241,-0.24860910000000003
5025202271,Soko,5.5451638,-0.2524844
5025315250,Kaneshie Foot Bridge,5.5651668,-0.2359506
5022354476,Pamprom,5.5626433,-0.23173190000000002
5025315234,unnamed,5.550687600000001,-0.2300155
5025315256,Boxing Arena,5.5373444,-0.22062020000000002
5025315221,UTC,5.5379275,-0.2179684
5025315255,Agbado,5.5385878,-0.2151171
5025315254,unnamed,5.5363370000000005,-0.21213810000000002
5025315253,Melcom,5.5431965000000005,-0.20703330000000003
5025315252,Market,5.5446021000000005,-0.20679870000000003
5025315251,Makola Tudu,5.5476549,-0.20708510000000002
5025315901,Accra Salaga,5.5405534,-0.20884760000000002
5025315900,New Station,5.535389200000001,-0.23023480000000002
5025315899,IBE (Camara),5.5356405,-0.24754640000000003
5025315898,Nku Kpotoi,5.535621000000001,-0.2486018
5025315897,Camara Junction,5.535673200000001,-0.250495
5025315896,Mangoase,5.5356807,-0.2526934
5025315895,Camara (Station),5.5366004,-0.25522930000000005
5025335724,Camara,5.537090300000001,-0.25682370000000004
5025335723,Mangoase,5.5356756,-0.2529188
5025335722,Camara Junction,5.535636200000001,-0.25075420000000004
5025335721,Nku Kpotoi,5.535594000000001,-0.24940620000000002
5025334220,IBE (Camara),5.535581100000001,-0.24764170000000002
5025334219,Salaga Market,5.5397822,-0.20906790000000003
5025314720,Tudu,5.551218800000001,-0.2079041
5025827615,After Dat,5.5571476,-0.21492770000000003
5025827614,Graphic,5.5555348,-0.21879550000000003
5025827613,Fata,5.5570165000000005,-0.22196320000000003
5023708438,Mtn office / Kaneshie Roundabout,5.5602898000000005,-0.2274073
5025827612,Pamprom,5.563398100000001,-0.23259670000000002
5025827590,Kaneshie Foot Bridge,5.5653237,-0.235801
5025972755,Accra Rawlings Park,5.545800700000001,-0.20681200000000002
5025972754,Ama,5.5448200000000005,-0.20383210000000002
5025972753,Ministries,5.5512771,-0.19516090000000003
5025972752,Presby,5.559271600000001,-0.18403650000000002
5026060290,SSNIT,5.5627294,-0.1817012
5024136421,Agric,5.5478404,-0.19857940000000002
5026060286,unnamed,5.544340600000001,-0.20642970000000002
5024136422,Ministries,5.5487527000000005,-0.19460390000000002
5026060288,Shell,5.5582989000000005,-0.18240810000000002
5026060289,Frankies,5.5610865,-0.1819706
5026060287,Traffic Light,5.5532313,-0.1850427
5026070123,Social Welfare,5.568788100000001,-0.23426410000000003
4997071036,Roundabout,5.572843700000001,-0.23079180000000002
5026070133,Dance Bar,5.576751600000001,-0.22792650000000003
4997071034,St. Theresa's,5.5794518,-0.22829960000000002
4997071033,Pentecost,5.5802667,-0.22903720000000002
5026070132,Obaatanpa,5.581309200000001,-0.2299383
5026070131,CPP,5.5828120000000006,-0.23074200000000003
4997066315,Masalakyi,5.5847277,-0.23153100000000001
5026070130,Meridian Chemist,5.587804200000001,-0.2353551
5026070129,Adodo,5.588682500000001,-0.23610930000000002
5026070128,CMB Flats,5.589603100000001,-0.23738560000000003
5026070127,Amankwah,5.5890583000000005,-0.23844340000000003
5026070126,Agya Paye,5.5947054000000005,-0.24031420000000003
5026151288,North Last Stop,5.594863800000001,-0.2425362
5026151287,Point 4,5.5923419,-0.24218800000000001
5026151286,Ziggy,5.590680300000001,-0.24160640000000003
5026151285,Demod,5.5890142,-0.24080050000000003
5026151284,Assemblies of God,5.5881403,-0.24016200000000001
5026151283,Amankwah,5.5891114,-0.2382594
5026151271,CMB Flats,5.589659200000001,-0.23712770000000002
5026151282,Adodo,5.589067200000001,-0.2363464
5026151270,Meridian Chemist,5.587682200000001,-0.2354671
5026151281,Swanlake,5.585988,-0.23206590000000002
5026151280,CPP,5.582718000000001,-0.230776
5026151279,Obaatanpa,5.581327300000001,-0.22999090000000003
5026151269,Pentecost,5.580235,-0.22909690000000002
5026151278,St. Theresa's,5.579368400000001,-0.22831040000000002
5026151277,Picadilly,5.5782628,-0.22771180000000002
5026151275,Ga Mantse,5.575587100000001,-0.22925350000000003
5026151274,Mother's Inn,5.5733506,-0.2312885
5026151273,Big Boss,5.570922500000001,-0.23241710000000002
5026151272,Fire Armour,5.570417900000001,-0.23295680000000002
5026172579,Alliance,5.5979817,-0.1759377
30729987,Airport First,5.6064531,-0.17730890000000002
4984741723,Airport Second,5.6098268000000004,-0.1765847
4977925525,Shangrila,5.617191200000001,-0.17591310000000002
5026254414,Masalaachi,5.676499700000001,-0.173855
5026329347,New Fadama,5.6000091,-0.2480149
4198267793,Danquah Second,5.5675097000000004,-0.18171920000000003
5026390735,Police Headquarters,5.571267300000001,-0.1884134
5058537146,New Fadama,5.599989600000001,-0.24812580000000004
5026407991,New Fadama (Market),5.59614,-0.24540410000000001
5022354473,Neoplan,5.568733600000001,-0.2185294
5026460153,Kanda,5.572847200000001,-0.20183320000000002
5026530819,Ashfoam,5.578820800000001,-0.22337230000000002
5026530818,Access Bank,5.584241400000001,-0.22450830000000002
5026530817,Melcom,5.587298700000001,-0.22713170000000002
5026530816,Light House,5.586428400000001,-0.2289623
5026530809,North Industrial Area,5.5855139000000005,-0.2314914
5026574430,Orgle-Road,5.5864599,-0.23711300000000002
5026574429,Awony3,5.5852883,-0.23907480000000003
5026574428,Ayigbe town,5.5834266,-0.23999840000000003
5026574427,Fita,5.581345600000001,-0.23904960000000003
5026574426,Ayigbe Town Old Station,5.5804387,-0.2398133
5026574425,Obeyeyie,5.579117200000001,-0.23901480000000003
5026574424,Cemetry,5.577861700000001,-0.23874620000000002
5026574423,Ola Balm,5.576008300000001,-0.23843660000000003
5026574422,Cottage,5.573936400000001,-0.23809600000000003
5026603977,Cocoa Clinic,5.571387100000001,-0.23662780000000003
5026603976,Five Five,5.5728100000000005,-0.23568540000000002
5026603975,Council,5.5761723000000005,-0.23637190000000002
5026603974,Tsofi,5.578600000000001,-0.23467730000000003
5026603973,Sakora,5.5790784,-0.23410180000000003
5026603972,Mangoase,5.5802719000000005,-0.23470300000000002
5026603971,Been to,5.5814187,-0.23546140000000002
5026603970,St. Johns,5.5822919,-0.2350597
5026603969,Awonye,5.5826842,-0.2363299
5026603968,Peps,5.5840627000000005,-0.23629850000000002
5026603967,Down,5.585115200000001,-0.23499480000000003
5026603966,Station,5.585282800000001,-0.23629650000000002
5026603965,washing bay,5.586024500000001,-0.2368888
4998045791,Kaneshie Takoradi Station,5.564809400000001,-0.23707550000000002
5026822852,Electricity,5.534641000000001,-0.23342340000000003
5027186818,Opetekwei,5.527657700000001,-0.2736525
5027186817,Agege,5.531722800000001,-0.2551931
5027216644,Banana Inn,5.541648,-0.25488310000000003
5027216643,Mr Mensah,5.539017,-0.26148540000000003
5027216642,Exhibition,5.537398700000001,-0.2642468
5027248834,Sempe Second,5.5378518,-0.23981900000000003
5027248833,Abodwe,5.535129100000001,-0.24229870000000003
5027248840,Girl School,5.531918500000001,-0.2426232
5027248839,Kakalika,5.531008000000001,-0.2425509
5027248838,Tea Gadern,5.5276379,-0.24227490000000002
5027248837,Alomo Junction,5.5268044000000005,-0.2437244
5043547846,Lantemaamill,5.526629700000001,-0.2459136
5027248836,Lantemaamill,5.526544800000001,-0.24614950000000002
5027264675,Tea Gadern,5.527449000000001,-0.24222380000000002
5027264674,Extra O,5.5290841,-0.24235560000000003
5027264673,Anna Larbi,5.5296554,-0.24239890000000003
5027264672,Kakalika,5.530992100000001,-0.24251330000000001
5027264671,Girl School,5.531855800000001,-0.24257150000000002
5027264670,Liju,5.5362127,-0.2412274
5027274336,Market,5.588763900000001,-0.2605615
5027274335,Macedonia,5.591093600000001,-0.25971690000000003
5027274334,Blue Kiosk,5.5922352,-0.2592586
5027274333,Mangoase,5.594128400000001,-0.25874210000000003
5027274332,Official Town,5.5949885,-0.25879490000000005
5027285561,Club Corner,5.558216300000001,-0.2434774
5027285560,Ashtown,5.559346000000001,-0.24904710000000002
5027285559,Paa Willie,5.559653900000001,-0.25210920000000003
5027285558,Mars Junction,5.5591466,-0.25371540000000004
5027285557,Okwahu Motors,5.5586842,-0.2557587
5027285556,Slow Down,5.5584066000000005,-0.25692600000000004
5027285555,New Russia Last Stop,5.558212900000001,-0.2569765
5027298821,Official Town,5.5955406000000005,-0.2594675
5027303272,Okwahu Motors,5.5587045,-0.25538370000000005
5027303271,Mars Junction,5.558998000000001,-0.25401480000000004
5027303262,Paa Willie,5.5595239,-0.25233550000000005
5027303270,Ashtown,5.559325100000001,-0.2495177
5027303269,Flamingo,5.5588832,-0.24732700000000002
5027303268,Kembs Hotel,5.560841300000001,-0.24577110000000002
5027303267,Kateco,5.5657429,-0.24391670000000001
5027303266,Central University,5.565345000000001,-0.24255670000000001
5027303265,Kant,5.564836000000001,-0.24054060000000002
5027303264,Ashley's,5.5638148,-0.23883820000000003
5027303263,Dansoman Trotro Station,5.563574200000001,-0.23789790000000002
5027354802,Odorkor (Main Bus stop),5.5804311,-0.26368610000000003
4972894711,Mallam Market,5.5739276,-0.2787566
5027354801,Modex,5.553302,-0.32231990000000005
5027365778,Sakaman,5.5762799,-0.2742332
5027365777,Busia Junction,5.5789059000000005,-0.26790840000000005
4740602036,Odorkor,5.5796764,-0.26484680000000005
5022354475,Roundabout,5.561998200000001,-0.22881700000000002
5027394908,State Transport,5.565389100000001,-0.22551410000000002
5027829973,Benjy's,5.562418,-0.29034190000000004
5027829972,Jayeemens,5.560333900000001,-0.29228360000000003
5027829971,Kalabule,5.5430349,-0.39053930000000003
5022354482,Atico,5.5741643000000005,-0.25117870000000003
5022354481,Mataheko Quarters,5.571973900000001,-0.24754030000000002
5022354480,Accra Academy,5.5707697000000005,-0.24550520000000003
5022354479,First Light,5.5692626,-0.24297320000000003
5022354478,Kaneshie First Bridge,5.566022,-0.2373694
5028241073,Kaneshie,5.564024000000001,-0.2378684
5028241072,Abomatte,5.5631678,-0.26022500000000004
5028241071,Zodiac,5.5601563,-0.2622763
5022354474,State Transport,5.5651790000000005,-0.22550630000000002
5028327330,Circle Last Stop,5.569098500000001,-0.21712860000000003
5028425416,1 plus 1,5.569876600000001,-0.2535626
5028425415,Mataheko Pharmacy,5.568484400000001,-0.2514544
5028425414,Mataheko Police Quarters,5.567405900000001,-0.24990140000000002
5028425413,JT,5.5644540000000005,-0.24503390000000003
5058536207,Kaneshie,5.5640396,-0.23778390000000002
2961513337,Labone,5.562145200000001,-0.1725142
5028483808,Veterinary,5.5572004,-0.16759330000000003
5054694251,Olympia,5.5578802000000005,-0.15870900000000002
5028483807,Container,5.578719,-0.13059790000000002
5028483806,Block Factory,5.582605600000001,-0.1308474
5028483805,Rasta,5.585088600000001,-0.131002
5127360604,unnamed,5.589907200000001,-0.13100710000000002
5028483804,Curve,5.5957384,-0.1308059
5028483803,Curve,5.5967663000000005,-0.1259056
5028483802,Junction,5.5948142,-0.12169680000000001
5028483801,ECG,5.6011943,-0.1201833
5028483800,Lekma Hospital,5.602219600000001,-0.12060620000000001
5028483799,Lekma,5.6041248,-0.12003110000000002
5028483798,Boola he,5.6047662,-0.11874050000000001
5028483797,Tsui Bleoo,5.606019000000001,-0.11549290000000001
5028660325,Polo,5.6316037,-0.21823130000000002
4981090365,Christian Village,5.6353879000000004,-0.214652
4981090370,Kisseman Junction,5.637254,-0.21323360000000002
4981090379,Pure Fire,5.637883100000001,-0.2118914
4981090377,Airways Junction,5.638179600000001,-0.21085820000000002
4981090367,Forestry Commission,5.639098700000001,-0.2088308
4981090368,GIMPA,5.641378100000001,-0.20523990000000003
4981090364,Legon Barrier,5.6415839000000005,-0.19791350000000002
4981090363,Ayido,5.6407052,-0.19373600000000002
4981090376,Legon Primary School,5.642692,-0.1899442
5028660324,Okponglo Roundabout,5.640365200000001,-0.1837592
4981090372,Legon Traffic Light,5.6405525,-0.1792475
5028660323,Legon,5.640701300000001,-0.17903460000000002
5028768230,Okponglo Roundabout,5.6407701,-0.1837474
5028768228,Legon Primary School,5.6437783,-0.1880004
5028768237,University Primary Roundabout,5.643586600000001,-0.18937310000000002
5028768236,Ayido,5.641347700000001,-0.1924443
4981090381,18,5.6409982,-0.19534230000000002
5028768235,Legon Barrier,5.6414996,-0.1974422
5028768234,GIMPA,5.6415448,-0.20512110000000003
5028768227,Forestry Commission,5.6394168,-0.20849550000000003
5028768233,Pure Fire,5.638121900000001,-0.21131580000000003
5028768226,Kisseman Junction,5.637613000000001,-0.21295200000000003
5028768232,Polo,5.6319037000000005,-0.21798360000000003
5028768231,Achimota Hospital Curve,5.629290500000001,-0.22024890000000003
5028768225,Achimota Club House,5.622886,-0.21919010000000003
5028866874,Nima Roundabout,5.578122400000001,-0.2005471
5028866873,Gutter,5.5882138,-0.19672900000000001
5028866872,Mawarko,5.5909155,-0.19578070000000003
5028866871,Maamobi,5.592106800000001,-0.19540380000000002
5028866870,Nima Overhead,5.594236700000001,-0.19462900000000002
5028942311,Maamobi,5.5922093,-0.19545320000000002
5028942310,Mawarko,5.5909772,-0.195839
5028942309,Nima Gutter,5.5884974000000005,-0.19658630000000002
5028942308,Traffic,5.5826358,-0.19824920000000001
5028942307,Nima Roundabout,5.5774841,-0.20085830000000002
5028998325,Tsui Bleoo,5.606035400000001,-0.1159864
5028998324,Lekma,5.6038838,-0.12129360000000002
5028998323,Agblezaa,5.616917300000001,-0.1246237
5029108942,Agblezah,5.617282800000001,-0.12497690000000002
5029234107,Ministries,5.548565900000001,-0.19469000000000003
5029234106,Second Stop,5.5503945,-0.1854512
5029234105,Five Junction,5.5522416,-0.18441000000000002
5029234104,SSNIT,5.5621365,-0.18241720000000003
5029234103,Junction,5.578836900000001,-0.17459850000000002
5029234102,IGP,5.5788707,-0.1712403
5029234101,Cantonments,5.577606,-0.17078520000000003
5029276337,Five junction,5.552308000000001,-0.18442070000000002
5024136424,Second Stop/Ataa Adjettey,5.5504446000000005,-0.18559360000000003
5024136423,Castle Junction,5.5496242,-0.1895986
5029644476,National Theatre,5.5542962000000005,-0.20101600000000003
5022716842,Children's Park First,5.5555022,-0.20012500000000003
5022716843,Children's Park Second,5.557240200000001,-0.19882210000000003
5029644475,Accra High School,5.569391400000001,-0.200385
5029644474,Kanda Roundabout Junction,5.5760993,-0.1966583
5029644473,Frankies Hotel Junction,5.577669200000001,-0.19868360000000002
5029644472,Nima Mamobi,5.5800754,-0.19778420000000002
5029644471,Nima,5.5805666,-0.19837610000000003
5030249502,Nima Market,5.580121800000001,-0.199501
5030249501,Sunny FM,5.5703307,-0.20006590000000002
5030249500,Second Gate,5.564866100000001,-0.2021079
5030249499,Ridge,5.561661600000001,-0.20021850000000002
5030249498,Accra High,5.560073600000001,-0.2016021
5030249497,OXL Junction,5.556528900000001,-0.2024014
5030249496,Accra Technical University,5.555412400000001,-0.20540380000000003
5030249495,Kinbu,5.5512835,-0.20418880000000003
5030423318,Brewa,5.6425071,-0.16123500000000002
5030650718,Nima Station,5.581514100000001,-0.1987605
5030650717,Alaska,5.5862518,-0.1971293
5030650716,Jack and Jill,5.601988500000001,-0.1897591
5030650715,Nyaho,5.614899100000001,-0.1850166
5030747573,Container First,5.616950900000001,-0.1819397
5030747572,Second Container,5.6163772000000005,-0.18282520000000002
5030747571,School Junction,5.6155257,-0.18414190000000003
5030747570,Nyaho,5.614862700000001,-0.1851741
5030747569,T Junction,5.6133414,-0.1875397
5030747568,Chinese,5.611982800000001,-0.18666370000000002
5030747567,Chinese Curve,5.611006100000001,-0.18576130000000002
5030747566,High Flow,5.61024,-0.18627100000000002
5030747565,Bostal First,5.608320900000001,-0.1875321
5030747564,Bostal Second,5.607274100000001,-0.1882234
5030747563,Bostal,5.6064145000000005,-0.18879720000000003
5030747562,Sign Board,5.601947000000001,-0.18826730000000003
5030747561,Jack and Jill,5.6020175000000005,-0.1895495
5030747560,SGS,5.602240500000001,-0.19191260000000002
5030747559,French School,5.601806900000001,-0.1933949
5030747558,Power House,5.599770100000001,-0.1942808
5030747557,Accra Girls,5.598193800000001,-0.19404100000000002
5030747556,Konka,5.5966298000000005,-0.19496480000000002
5030747555,Nima Overhead,5.594123300000001,-0.19473630000000003
5030747554,Borla,5.5838624,-0.1978956
5030857589,Achimota Overhead,5.619802300000001,-0.23052180000000003
3154450964,Mampong,5.600606900000001,-0.25549570000000005
5030857588,Darkuman Junction,5.5775541,-0.2545564
5050732581,Darkuman Junction,5.5776051,-0.2544787
5030894252,Quarters,5.585571300000001,-0.2515972
5030894253,Bombay,5.595680300000001,-0.2528996
5030924914,Nima Station (Gutter Station),5.588272300000001,-0.19666270000000002
5030924913,Madina,5.6787406,-0.1737566
5030980189,Alaska (Nima Maamobi),5.586140500000001,-0.19724680000000003
5030980188,Nima Station,5.5820394,-0.19842520000000002
5031022751,Roundabout,5.562593000000001,-0.22858040000000002
5031022750,Happy Days,5.5556859,-0.23237750000000001
5031266300,Demod,5.588813000000001,-0.24063250000000003
5031288173,Point 4,5.5927489,-0.24221990000000002
5031266299,Point 4 (last stop),5.5953077,-0.24253400000000003
5031266298,Market,5.5958597,-0.245294
5031266297,Musulley,5.5986871,-0.24533770000000002
5031266296,unnamed,5.5986171,-0.2473258
5031288174,unnamed,5.595347,-0.24259980000000003
5031288172,North Kaneshie,5.5896201,-0.23662960000000002
5031288171,New Melcom,5.5851866,-0.22144460000000002
5031303659,Light House,5.5864409,-0.22872670000000003
5031322664,Circle,5.5688494,-0.21595170000000002
5031322654,Tigo Office,5.5576005,-0.20572600000000002
5031322663,Novotel,5.549980700000001,-0.19955550000000002
5024785671,Mental,5.5624636,-0.20451650000000002
5031633793,Ridge Hospital,5.5612813,-0.19943500000000003
5031633792,Stadium,5.553557400000001,-0.1906769
5031643336,Stadium,5.5534727,-0.19043820000000003
5031643335,Roundabout Ridge,5.559917400000001,-0.19761650000000003
5031643334,Total,5.565203200000001,-0.20779460000000002
5033271033,Mami Dokuno,5.5701548,-0.21269050000000003
5033271032,Zenith,5.5653136000000005,-0.1819222
5033271031,Kelewele,5.553643500000001,-0.1814955
5033271030,Christian Council,5.5533827,-0.18287470000000003
5033271029,Last stop,5.553349300000001,-0.18370060000000002
5033299214,Afridom,5.5650247,-0.1819088
5033299217,Fire Service,5.569127600000001,-0.1846421
5033299215,Last Stop Odawnaa,5.568214800000001,-0.21699150000000003
5033299216,Curve,5.5668370000000005,-0.21621350000000003
5033542213,Cathedral,5.5633550000000005,-0.20624070000000003
5031328607,Museum,5.561189100000001,-0.2061224
5033861588,Teachers Hall,5.557682300000001,-0.2079485
5034072898,Forestry,5.617325500000001,-0.21595470000000003
5034072897,Railway,5.6078213,-0.20815050000000002
5034253899,Awoshie Last stop,5.5919397,-0.2872307
5034303933,Awoshie Last stop,5.5916771,-0.2875586
5013249865,Been To,5.587303800000001,-0.27151190000000003
5034362685,Israel Lomnava,5.6311312000000004,-0.2688401
5034486676,Nima Mamobi,5.580127500000001,-0.19784620000000003
3045917876,Accra Mall,5.622767700000001,-0.17404770000000003
5034486675,Ashaiman Last Stop,5.6869195,-0.031750600000000004
5034539524,Nima Roundabout,5.578277600000001,-0.20057970000000003
5058537129,Accra,5.552401100000001,-0.2139608
5035412453,Mother's Inn,5.5734313,-0.2312539
5035412452,Presby,5.5746910000000005,-0.23298990000000003
5035412451,Alhadji,5.5846894,-0.2389863
5035412450,Washing Bay,5.586302000000001,-0.23953130000000003
5035412449,Asoredanho,5.586305500000001,-0.24226830000000002
5035412448,Police Station,5.586279800000001,-0.24497720000000003
5035412447,Quarters,5.586301400000001,-0.2510772
5035412446,Darkuman,5.5889506,-0.25100340000000004
5035473851,Quarters,5.5862553,-0.2499908
5035473850,Mangoase,5.586252200000001,-0.24822400000000003
5035473849,Asoredanho,5.5862426,-0.2421474
5035473848,Washingbay,5.586234900000001,-0.23953810000000003
5035473847,School Junction,5.5809249,-0.23542380000000002
5035473846,Presby,5.5750403,-0.23331870000000002
5035473845,Roundabout,5.5719333,-0.23061750000000003
5035473844,Awudome,5.5691974,-0.22818860000000002
5035473843,STC,5.564006300000001,-0.22638270000000002
5035473842,Rana Motors,5.5596173,-0.2235948
5035473841,Cold store,5.556947300000001,-0.22220510000000002
5025776030,Graphic,5.555507100000001,-0.21970270000000003
5035473840,Gate,5.5526127,-0.21466090000000002
5035412454,Accra,5.552383000000001,-0.21401850000000003
5035532963,Dome Market,5.643855200000001,-0.23799570000000003
5035532962,Brigde,5.6840378000000005,-0.23110090000000003
5035532961,Melcom,5.688941700000001,-0.23193170000000002
5035532960,Lotto kiosk,5.692117400000001,-0.2337103
5035532959,Presby,5.6995104,-0.2376331
5035532958,School junction,5.7016230000000006,-0.23644120000000002
5035532957,Dome /Ashongman Estates,5.702369000000001,-0.2354245
5035642562,Dome /Ashongman Estates,5.702225200000001,-0.23583700000000002
5035642561,Lotto kiosk,5.692142700000001,-0.23382260000000002
5035642560,K Fori,5.690730800000001,-0.23343870000000003
5035642559,Melcom,5.688912200000001,-0.23210530000000001
5035642558,Hospital,5.685271200000001,-0.23142870000000001
5035642557,Bridge,5.6836872000000005,-0.2311246
5035642556,2nd Lotto kiosk,5.681497,-0.23471460000000002
5035642555,Emmanuel,5.680985100000001,-0.24038120000000002
5035642554,Achimota Overhead,5.6210766,-0.23143960000000002
5035697845,18,5.640872900000001,-0.19511430000000002
5035697844,Legon Police Station,5.6512919,-0.17965850000000003
4981090362,Legon Station,5.6501681,-0.17896340000000002
5035706410,Precious Minerals,5.550679700000001,-0.20067110000000002
5035725209,Golf Park,5.6308895,-0.21895610000000001
5035725208,PWD,5.6244635,-0.2188227
5035725207,Achimota Police Station Curve,5.6213604,-0.2203081
4989358232,First Light,5.5695562,-0.2426319
5035775005,Old Tema Station,5.549945200000001,-0.1996262
5035796883,Circle Post Office,5.5719954000000005,-0.21601830000000002
5035796881,Alajo,5.589148300000001,-0.21792660000000003
5035796880,CAT,5.595732900000001,-0.22204790000000002
5035800240,Abotare,5.6051606000000005,-0.2454483
5035800239,Abeka Bcos Junction,5.5988017,-0.2348019
5035800238,Tesano Gardens,5.5982905,-0.23113060000000002
5035800237,Fitting Shop,5.5991828,-0.2262839
5036505671,Westlands junction,5.650252500000001,-0.20975080000000002
5036505670,Allied fuel station,5.659238500000001,-0.20663650000000003
5020636353,Supermarket,5.6673746000000005,-0.1960281
5036505669,Ebenezer,5.6673302,-0.19265810000000003
5036505668,Agbogba Junction,5.667485800000001,-0.18770430000000002
5036505667,Madina Zongo Junction,5.678438600000001,-0.17405250000000003
5036565850,Atomic Junction,5.6673058,-0.1779022
5036565849,Supermarket,5.667459200000001,-0.1960492
5036565848,Haatso Junction,5.6675272,-0.204272
5036565847,Barrier,5.6621855000000005,-0.20526670000000002
5036565846,Post Box,5.661621,-0.20554290000000003
5036565845,Pharmarcy,5.6606307000000005,-0.2060374
5036565844,Flower pot,5.6589029,-0.20690050000000001
5036565843,Clinic/ police container,5.657173800000001,-0.20771380000000003
5036565842,Communication,5.6542123,-0.20861870000000002
5036565841,Sign board,5.652109500000001,-0.20933780000000002
5036565840,Westlands junction,5.6500751000000005,-0.20990580000000003
5036565839,Bridge,5.6451381000000005,-0.2105643
5036565838,1st curve,5.642667100000001,-0.2099649
5036565837,2nd curve,5.6419199,-0.2109272
5036565836,Gimpa Junction,5.6389743,-0.2094225
5036565835,Airways Junction,5.6382956,-0.21064210000000003
5036738904,Abelenkpe Curve,5.6073843000000005,-0.2152195
5036738903,Abelemkpe Junction,5.6092504000000005,-0.21022790000000002
5036738902,Roman Ridge 1st,5.6032245000000005,-0.201056
5036738901,Pig Farm,5.5987602,-0.1979953
5036738900,Top Class,5.5970686,-0.19908510000000001
5036738899,Club 1000,5.596089,-0.20033800000000002
5036738898,Abavana,5.594428400000001,-0.20246780000000003
5036738897,Kotobabi Police Station,5.592391500000001,-0.20425400000000002
5036738896,Taxi Rank,5.5921460000000005,-0.20539700000000002
5036738895,Nkansah Gyan,5.5911473,-0.20626940000000002
5036738894,Five five,5.5897724,-0.20726250000000002
5036738893,Master Chef,5.588822,-0.2074167
5036738892,Agbadinar,5.588248500000001,-0.20749130000000002
5036738891,Accra New Town (37 Station),5.586774600000001,-0.2077006
5036738890,New Town Total,5.5857666,-0.20791150000000003
5036738889,Lapaz Station,5.584086600000001,-0.20823770000000003
5036738888,College,5.58326,-0.20840370000000003
5036738887,Mallam Attah,5.579393100000001,-0.20978880000000003
5058536217,Mallam Attah,5.5794835,-0.20971920000000002
5036784367,Nima Junction,5.5822317,-0.20858330000000003
5036784366,Ghana Commercial Bank,5.584835600000001,-0.20804530000000002
5036784365,Accra New Town (37 Station),5.586735600000001,-0.20766120000000002
5036784364,Kotobabi Police Station,5.5920743,-0.20446360000000002
5036784363,Abavana,5.5940064000000005,-0.202741
5036784362,Pig Farm,5.5981141,-0.1983215
5036784361,Lotto Kiosk Abelenkpe,5.608746200000001,-0.21638780000000002
5036784360,White House,5.6098505,-0.2169396
5036784359,Village Inn,5.613061200000001,-0.2188412
5036784358,AMA,5.612998900000001,-0.2210195
5036784357,Marwako,5.6121625,-0.2250436
5036784356,Abofu Overhead,5.613712700000001,-0.22515670000000002
5036784355,Abofu Market,5.616062200000001,-0.2251228
5036784354,Presby School,5.617737600000001,-0.22447740000000002
5037031763,Manet,5.640831,-0.1290755
5123194249,Akoto Lante,5.5389276,-0.21309450000000002
5037177373,unnamed,5.5498313,-0.22941000000000003
5037177372,Ayigbe Town,5.553737600000001,-0.23120780000000002
5022354477,Kaneshie Second Bridge,5.564893400000001,-0.23548510000000003
5058534309,Alajo T-Junction,5.5985442,-0.217095
5037296282,Pele,5.597308000000001,-0.2170081
5037296283,Taxi Rank Alajo,5.5960336,-0.21690130000000002
5037296281,Filling Station,5.5940542,-0.2167639
5037296280,Alajo Market,5.5910678,-0.2170806
5037296279,Caprice,5.5844613,-0.21661020000000003
5037296277,Caprice Juntion,5.5812521,-0.21590040000000002
5058534307,Circle (Alajo Station),5.5711306,-0.21430980000000002
5037296278,Circle (Alajo Station),5.5711437,-0.21423560000000003
5037350646,Alajo Market,5.590730300000001,-0.21737040000000002
5037350644,Filling Station,5.594026800000001,-0.2167225
5037350645,Taxi Rank Alajo,5.595855200000001,-0.2168285
5037350643,Pele,5.597078600000001,-0.21691960000000002
5037296284,Alajo T-Junction,5.598589700000001,-0.21704030000000002
5037452745,Apapa,5.5673541,-0.16378520000000002
2961513338,Labone,5.562992800000001,-0.1735575
5029108940,Bridge,5.564971300000001,-0.17713790000000001
5037547648,Labone,5.5634649000000005,-0.1723326
5037547647,Coffee Shop,5.5682166,-0.16902180000000003
5037547646,Amelia,5.568012700000001,-0.1663714
5037648958,Atico,5.575690700000001,-0.24857880000000002
5037690457,Bazaza,5.571651900000001,-0.23854350000000002
5037690448,Ola Balm,5.5757402,-0.23831560000000002
5037690456,Cemetry,5.577267300000001,-0.23855450000000003
5037690455,Bubuashie,5.5803725,-0.23992170000000002
5037690454,Datus,5.5820319000000005,-0.24266720000000003
5037690453,Vulcanizer,5.5820379,-0.24449600000000002
5037690452,Atico,5.5797996,-0.24700900000000003
5037792707,Nima School Junction,5.5762751,-0.20083250000000002
5037808481,Equip,5.5705834,-0.210878
5040165404,Nima Station,5.581973700000001,-0.1982404
5037823182,Nima Roundabout,5.5778718000000005,-0.20047450000000003
5037835927,New Town,5.582600800000001,-0.20865090000000003
4988349723,UPS,5.6598598,-0.16668270000000002
3462084088,High Tension,5.6434962,-0.17002420000000001
5037881469,Christian Village,5.635419100000001,-0.21470200000000003
5037881468,Village First,5.6375643,-0.21734910000000002
5037881467,Village Second,5.6386108,-0.2184201
5037881466,Cemetary,5.640278100000001,-0.22001990000000002
5037881465,Vulcanizer,5.644102800000001,-0.22437140000000003
5037881464,Kay Boat,5.6461155000000005,-0.22665320000000003
5037881463,Transformer,5.6476277,-0.2285898
5037881462,Dome,5.638743300000001,-0.24225510000000003
5038307548,Coca Cola,5.648493200000001,-0.2302732
5038307547,Transformer,5.6474561,-0.22845720000000003
5038307546,Lebo,5.6457690000000005,-0.22632950000000002
5038307545,Koforidua House,5.6444862,-0.22488300000000003
5038307544,Cemetary,5.6400816,-0.2199432
5038307543,Danblesco,5.638421600000001,-0.2183392
5038307542,Cold store,5.637140700000001,-0.2169849
5038307541,Legon,5.651247100000001,-0.17900680000000002
5038728623,Taifa Post Office,5.651192000000001,-0.25091630000000004
5038728622,No way,5.6526566,-0.2507863
5038728621,SDA,5.6564006000000004,-0.25215790000000005
5038979084,Bubiashie Ayigbe Town,5.582996400000001,-0.24013630000000002
5039026000,Taifa Post Office,5.652058,-0.2507585
5039839201,Times,5.5697874,-0.22185000000000002
5039839200,Dannex,5.574225,-0.22282770000000002
5039839199,Latex Foam,5.576283900000001,-0.223065
5039839198,SSB,5.5780506,-0.22327120000000003
5039839197,Casajan,5.581619600000001,-0.22365490000000002
5039839196,Immesco Rice,5.5899273,-0.231307
5039861617,Immesco Rice,5.5897601,-0.23144030000000002
5039861616,Electricity Junction,5.5799647000000006,-0.22012310000000002
5039861615,Circle / Vodafone,5.571856500000001,-0.2161403
5039895716,Circle,5.573144600000001,-0.21423180000000003
5039895715,Roman Junction,5.5851617000000005,-0.21298380000000003
5039895714,Mallam Attah Market,5.5863151,-0.20958480000000002
5039895713,Bakery,5.5880695000000005,-0.20913550000000003
5039895712,Five five,5.5899988,-0.20776180000000002
5039895711,School Junction,5.591598200000001,-0.20714870000000002
5039895710,Prempeh,5.592347200000001,-0.2078076
5039895709,Kotobabi Market,5.5931302,-0.20896150000000002
5039895708,Kotobabi Down (Polo Park),5.5958908,-0.20915480000000003
5039908071,Kotobabi Down (Polo Park),5.5958129,-0.2091993
5039908070,Five five,5.5900474,-0.20730060000000003
5039908069,Bakery,5.588404100000001,-0.2091599
6984515094,Mallam Attah Market,5.583741600000001,-0.2081542
5039908067,Roman Junction,5.5852509,-0.21306680000000003
5039908066,Circle Lido,5.5733002,-0.2145516
5039970969,Fidelity,5.5774927000000005,-0.21207040000000002
5039970968,Asantewaa,5.57957,-0.2105227
5039970967,Mallam Atta,5.581248400000001,-0.20926930000000002
5039970966,College,5.5832983,-0.20833800000000002
5039970965,New Town Total,5.585571900000001,-0.20790000000000003
5039970962,Agbadinar,5.587907,-0.20748360000000002
5039970961,Master Chef,5.5890703,-0.2073193
5039970964,Vulcanizer,5.5932618000000005,-0.2033918
5039970960,Club 1000,5.595938100000001,-0.20050990000000002
5039970963,Top Class,5.596499100000001,-0.19941350000000002
5039976075,Mallam Atta,5.581659800000001,-0.20905410000000002
5039976074,Asantewaa,5.579692400000001,-0.21050040000000003
5039976073,Fidelity,5.5776349000000005,-0.21203260000000002
5039976072,Express,5.5767693000000005,-0.21267570000000002
5039976071,Quarters,5.5749693,-0.21404760000000003
5039976070,City Lights,5.574360700000001,-0.21447480000000002
5040045045,Accra CMB,5.5506818,-0.21307040000000002
5040045043,Oblogo,5.559597800000001,-0.3122011
5040045042,Weija School,5.569506700000001,-0.3303497
5040045041,Weija Market,5.5710576000000005,-0.3346752
5040045040,Weija,5.572254600000001,-0.3373797
5040070777,Weija Junction,5.556461100000001,-0.3037498
5040070776,Mallam Market,5.572543400000001,-0.28038660000000004
5040070775,Darkuman Junction,5.576112900000001,-0.25444910000000004
5023708439,Kaneshie Roundabout,5.5604129,-0.22796770000000002
5040075680,Kotobabi Down,5.595672400000001,-0.2093405
5040075679,Ojawe,5.5950069000000004,-0.20809390000000003
5040075678,Deeper life junction,5.5911932,-0.20751100000000003
5040075677,Olympic junction,5.5852405,-0.21012940000000002
5040075676,Avenor,5.580647000000001,-0.2168103
5040075675,Adabraka,5.564903800000001,-0.21440440000000002
5040075674,Kingsway,5.551857200000001,-0.21092970000000003
5040089802,Kingsway,5.5518679,-0.2107525
5040089801,Olympic junction,5.5846153,-0.2159116
5040089800,Roman junction,5.5849824,-0.21574700000000002
5040089799,Dworwulu junction,5.5854539,-0.20982650000000003
5040089798,Jehova junction,5.5903019,-0.20766990000000002
5040089797,Labour Centre,5.5935661,-0.20651830000000002
5040089796,Kotobabi Market junction,5.5947354,-0.20762750000000002
5040110846,Nima Junction,5.5823679,-0.20857840000000002
5040124408,Circle Lido,5.5715044,-0.213544
5040124407,37,5.587597400000001,-0.2092633
5040124406,Newtown,5.5887437,-0.208577
5040135021,Shangrila,5.6172107,-0.17707050000000002
5040133320,Car Spot,5.614164000000001,-0.18626150000000002
5040133319,Bostal Curve,5.6056102,-0.1878624
5040133318,Asaviola,5.6042364000000005,-0.18832490000000002
5040133317,Konka Curve,5.5957258,-0.19384
5040133316,Nima Junction,5.5731764,-0.20136880000000001
5040165406,School Junction Nima,5.578033100000001,-0.1986659
5040165405,Curve,5.5815185000000005,-0.19718210000000003
5040165403,Nima Gutter,5.5881572,-0.1966034
5040165402,Mamobi Market,5.593890600000001,-0.19479390000000002
5040165401,Konka,5.5966652,-0.1948496
5040165400,Accra Girls,5.598149,-0.19391580000000003
5040165399,Power House,5.599705,-0.1942183
5040165398,French School,5.6017437,-0.19332490000000002
5040165397,SGS,5.602132800000001,-0.19210130000000003
5040165396,Sign Board,5.601842800000001,-0.1884405
5040165395,Bostal,5.606394900000001,-0.18872580000000003
5040165394,Bostal First,5.6071968000000005,-0.188201
5040165393,Bostal Second,5.608410900000001,-0.1874049
5040165392,High Flow,5.610195900000001,-0.18624500000000002
5040165391,Chinese,5.6123865,-0.18690550000000003
5040165390,T Junction,5.6132613000000005,-0.18749200000000002
5040165389,School Junction,5.6154609,-0.18416020000000002
5040165388,Container First,5.616170800000001,-0.1829995
5040165387,Container Second,5.6168167,-0.18203570000000002
5040165386,Mangoase,5.6172478,-0.17866
5040173329,PTC,5.567761000000001,-0.21514940000000002
5040332110,Lapaz Market,5.6073637000000005,-0.25687990000000005
5040332109,Lapaz Borlaso,5.609458300000001,-0.261239
5040372069,Alhaji Curve,5.626597200000001,-0.2619251
5040372068,Star Junction,5.6225122,-0.26170020000000005
5040372067,Tabora Asoredanho,5.6218117,-0.2627822
5040372066,Tabora Junction,5.6190946,-0.2618326
5040372065,Tabora Lighthouse,5.617073700000001,-0.2611454
5040372064,Scorpion,5.615891800000001,-0.2607778
5040372063,Tabora Number 6,5.6126547,-0.26099550000000005
5040372062,Tabora Number 5,5.610818500000001,-0.2611812
5040372061,Tabora Number 4,5.608795700000001,-0.2603764
5040372060,Tabora Number 3,5.607101,-0.2589156
5040372059,Abrantie,5.6066991,-0.2549116
5040597425,Alhaji Station,5.6282898,-0.26174230000000004
5040597424,Israel Junction,5.6308505,-0.2638615
5040597423,Masalaashi Israel,5.6309433,-0.26666860000000003
5040597422,Isreal Station,5.631182300000001,-0.26904750000000005
5040597421,Lomnava First Curve,5.631602000000001,-0.2714589
5040597020,Second Curve,5.6344909,-0.2717567
5040597019,Wele Junction,5.63431,-0.27379770000000003
5040597018,Stelee Drug store,5.6357349,-0.27404480000000003
5040597017,Lomnava Last Stop,5.635894800000001,-0.2785844
5040597016,Agenda,5.639606000000001,-0.2788107
5040597013,Lomnava,5.6400971,-0.28265450000000003
5040742581,Lomnava First Curve,5.631490400000001,-0.27164130000000003
5040742580,Ayigbe Junction,5.630915900000001,-0.2655117
5040742579,Israel Junction,5.6306672,-0.2637628
5040742578,Alhaji Station,5.628351,-0.2620197
5040742577,Walaako,5.625676800000001,-0.26199720000000004
3045917870,Accra Mall Roundabout,5.6220398000000005,-0.17473260000000002
5040871739,Airport Junction,5.6223746000000006,-0.1794919
5040917093,Yellow House,5.6382209,-0.2690014
5040928827,First Total,5.5996921,-0.1973774
5041051501,Clinic,5.656581200000001,-0.20783410000000002
5041051500,Pharmacy,5.660445500000001,-0.2060712
5041051499,Haatso,5.667276500000001,-0.2046504
5041138816,Barclays,5.6656167,-0.2047198
5041209348,Station,5.587042500000001,-0.2788954
5041226371,Station,5.5869789,-0.27948110000000004
5041288969,Timber Market,5.5434076,-0.2161393
5041288968,Arena,5.5449558,-0.21667300000000003
5041288967,Agbogbloshie,5.549076500000001,-0.21683100000000002
5041513177,Nyamekye Junction,5.604486700000001,-0.25473690000000004
5041513176,Christ Mission,5.594422300000001,-0.26960900000000004
5041513175,Jah Love,5.5963807,-0.2706603
5041513174,Santa Maria Blue Kiosk,5.598593900000001,-0.27207600000000004
5041513173,Family Friend,5.6003628,-0.2732295
5041513172,Drug Store,5.602971800000001,-0.2747723
5041550700,Santa Maria,5.6057173,-0.2758197
5041550699,Video Junction,5.6016364,-0.27402730000000003
5041550698,Jah Love,5.596652700000001,-0.2708766
5041550697,Christ Mission,5.594963600000001,-0.2701335
5041609689,Ahenfie,5.6067147,-0.2611082
5041609688,Container Race Course,5.6091341,-0.26405890000000004
5041609687,Appiah Junction,5.6130792000000005,-0.2691039
5041609686,Race Course,5.6142234,-0.27158930000000003
5111502567,Abase,5.6165985,-0.2033473
5113810459,MTN,5.610309300000001,-0.23561940000000003
4997071022,Madina Masalachi,5.6791469,-0.1726782
4997071021,Ritz Junction,5.6876395,-0.1713683
4997066320,Assemblies,5.691426600000001,-0.1715395
4997066319,SDA,5.6966811,-0.1715723
4997066318,Goil Filling Station,5.7000568000000005,-0.1716013
5020636351,Wass,5.704508700000001,-0.17116750000000003
4400481895,Adenta Barrier,5.70619,-0.1705521
5043094924,Kwashieman Junction,5.5927011,-0.26842910000000003
5043094923,Assiamah,5.606995500000001,-0.2743514
5043094922,Auntie Aku,5.6082358,-0.27459910000000004
5043094921,Africa,5.612736000000001,-0.2754227
5043051320,Rescue point,5.6137034,-0.2755888
5043051319,Dega,5.6153200000000005,-0.27590220000000004
5041737434,Chop Bar,5.616598100000001,-0.27614180000000005
5041737433,Market,5.6205575,-0.27690000000000003
5041737432,Vulcanizer,5.6228929,-0.2788759
5043051318,Printing Press,5.62363,-0.27960900000000005
5041737431,Sowutuom,5.624839700000001,-0.2834354
5043131246,Pentecost,5.6227111,-0.2788002
5043131245,Dega,5.615153200000001,-0.27599260000000003
5043131244,Rescue point,5.6138719,-0.27570300000000003
5043131243,Africa,5.6128149,-0.27554470000000003
5043131242,Polo,5.610100600000001,-0.2750455
5043131241,Auntie Aku,5.6080996,-0.27467990000000003
5043131240,Assiamah,5.607149000000001,-0.2744823
5043131239,Drug store,5.6030183000000005,-0.2748783
5043131238,Family Friend,5.6003962000000005,-0.2733205
5043131237,Kwashieman,5.592600000000001,-0.268197
5043181875,Antie-Eku,5.612743000000001,-0.28487270000000003
5043308481,Kwashieman Junction,5.591227900000001,-0.26796220000000004
5043308480,Odorkor,5.5843584,-0.2646775
5043308479,Water,5.581114200000001,-0.26356620000000003
5043308478,First Gate,5.554253900000001,-0.21471690000000002
5043353519,Graphic junction,5.5541473,-0.2142871
5043353518,Accra Academy,5.571183800000001,-0.24546450000000003
5043353517,Goil,5.5733854,-0.24909460000000003
5043353516,Darkuman junction,5.577009400000001,-0.2550811
5043353515,Glory Land junction,5.578426500000001,-0.2574553
5043353514,Waterworks junction,5.579809200000001,-0.25972680000000004
5043353513,Odorkor,5.5807036000000005,-0.26241770000000003
5043353512,Off Town Junction,5.5850565,-0.2647836
5043353511,School junction,5.5867981,-0.26536000000000004
5043353510,Kwashieman Junction,5.591185800000001,-0.26788310000000004
5043423430,Kwashieman,5.5921722,-0.26859370000000005
5043423431,A Lang,5.5977924,-0.2781679
5043483177,Bambolino,5.6082647,-0.2425401
5043507713,Abeka Lapaz,5.6067819000000005,-0.24808290000000002
5043547848,Liju,5.536161900000001,-0.2413492
5043547847,Extra O,5.528780200000001,-0.2423704
5043547850,Bridge,5.5263755,-0.24897010000000003
5043547849,Chokor/ Chemuna,5.526246400000001,-0.2504633
5043599037,Kotobabi Down,5.5974079,-0.19888390000000003
5043599036,Lapaz Station,5.5848186,-0.2082208
5058534295,Chokor/ Chemuna,5.5262029,-0.2504583
5043729312,Ridge,5.597620000000001,-0.21131010000000003
5043794575,Accra Girls,5.5979536,-0.19269350000000002
5043794574,Prempeh,5.5930100000000005,-0.20592110000000002
5045130247,Kaneshie Market bus stop,5.566579300000001,-0.23560430000000002
5045130246,Fan milk,5.5700571000000005,-0.22224900000000003
5045157928,Times,5.566244500000001,-0.22460040000000003
5045157927,Transport,5.566357000000001,-0.22548520000000002
5045157926,School Junction,5.5676914,-0.2288011
5045217690,Good Shepherd,5.583879400000001,-0.23631870000000002
5045239825,Summerhut,5.5405319,-0.23958780000000002
5045239824,Dan Wright,5.5397505,-0.24293570000000003
5045239823,Clinic,5.538328300000001,-0.24503680000000003
5045239822,Bank,5.5362606,-0.2543862
5045251537,Clinic,5.5379414,-0.245266
5045251536,Summerhut,5.5403795,-0.24004660000000003
5045251535,Asoredan ho,5.5611945,-0.23858930000000003
5045325132,Cottage,5.573568000000001,-0.23805260000000003
5045353364,First Junction,5.553149800000001,-0.24386230000000003
5045353363,Printing Press,5.550500800000001,-0.24385940000000003
5045353362,Transformer,5.548991900000001,-0.24383820000000003
5045353361,Lotto Kiosk,5.5479323,-0.24381960000000003
5045353360,Video City,5.5467781,-0.24393430000000002
5045353359,School Junction,5.5467826,-0.24461720000000003
5045353358,Pentecost,5.544457800000001,-0.24671360000000003
5045353357,Adonteng,5.542955200000001,-0.24675590000000003
5045353356,Toilets,5.542837400000001,-0.2470342
5045353355,Bridge,5.5427919,-0.24756340000000002
5045353354,Curve,5.5427609,-0.2484715
5045353353,Container,5.543872100000001,-0.24887670000000003
5045353352,Soko Junction,5.545207400000001,-0.24890860000000004
5045353351,Second,5.5452532,-0.2502034
5045353350,Masalaachi,5.545237200000001,-0.251688
5045353349,Appiah Danquah/Soko,5.5452374,-0.252404
5045403683,Second,5.5452143000000005,-0.25081210000000004
5045403682,Soko Junction,5.545199500000001,-0.24897770000000002
5045403681,Container,5.5439378,-0.24888150000000003
5045403680,Curve,5.5429287,-0.24871130000000002
5045403679,Bridge,5.5427119000000005,-0.24773250000000002
5045403678,Adonteng,5.542790800000001,-0.24679180000000003
5045403677,Pentecost,5.5442593,-0.24668030000000002
5045403676,School Junction,5.546722000000001,-0.24543270000000003
5045403675,Lotto Kiosk,5.547519100000001,-0.24377710000000002
5045437551,First junction,5.5724138000000005,-0.2355617
5045437550,Presby Junction,5.574147900000001,-0.23613050000000002
5045437549,A.M.A,5.575390700000001,-0.23636740000000003
5045437548,Paradise,5.5860981,-0.2393714
5045437547,Wireless,5.5862905000000005,-0.24016220000000002
5045437546,Demod,5.5889591,-0.2418289
5045437545,Afropa,5.5901138,-0.24519320000000003
5045459190,Great Lamptey,5.557707100000001,-0.24482410000000002
5045462244,Sukura,5.550570100000001,-0.24929440000000003
5013209308,Total,5.5735321,-0.2834062
5047020131,Dzorwolu,5.6164702,-0.19587790000000002
5047020130,Special Ice,5.6122814000000005,-0.1977866
5047020129,Last Chance,5.611555500000001,-0.1989623
5047020128,Bayere Junction,5.6113178,-0.20038860000000003
5047020127,Vulcanizer,5.611814000000001,-0.20085080000000002
5047020126,Sea Theatre,5.6114863,-0.20354560000000002
5047020125,Dzorwulu Junction,5.6084335,-0.206716
5047020124,Ebony,5.6022629,-0.20315460000000002
5047020123,Asore Junction,5.6016833,-0.20224340000000002
5047020122,Pig Farm Station,5.5982811,-0.19843980000000003
5047020121,Circle,5.573017900000001,-0.2158528
5047059648,Sadisco,5.575697900000001,-0.2133875
5047059644,Special Ice,5.612501000000001,-0.19743870000000002
5047059647,Presby,5.613924900000001,-0.19581240000000003
5047108310,East Legon,5.648319300000001,-0.15077200000000002
5047108305,Bridge,5.646221000000001,-0.15501060000000003
5047108309,Bawaleshie Acheampong,5.6429575000000005,-0.159918
5047108308,Banku Junction,5.639772600000001,-0.16911060000000003
5047108307,Mensvic,5.6370893,-0.17160640000000002
5047108306,Emmanuel Eye Clinic,5.630116,-0.17461020000000002
4974195501,Sankara,5.5734253,-0.18943510000000002
4984742321,Flagstaff House,5.576205900000001,-0.18794670000000002
5047154067,37 Water Works,5.583400900000001,-0.18490630000000002
4974195502,37 Hospital,5.5879146,-0.1826114
4977880923,License Office,5.591933300000001,-0.18060820000000002
4977897982,Opeibea First,5.5963571000000005,-0.17960720000000002
4977886631,Opeibea Second,5.6007053,-0.17863980000000002
5047154066,Shiashie,5.627304100000001,-0.1759504
5047154065,Block Factory,5.6284456,-0.1736704
5047154064,Puplampu,5.6328306,-0.17267300000000002
5047154056,Mensvic,5.6369357,-0.171599
5047154063,KFC / Banku Junction,5.6396227,-0.1694208
5047154062,Bawaleshie Traffic Light,5.641629300000001,-0.16914110000000002
5047154061,Bawaleshie First,5.6418176,-0.1673155
5047154060,MTN,5.6452846,-0.1562346
5047154059,Bridge,5.6462018,-0.1550599
5047423649,Glefe Station,5.521639800000001,-0.27374370000000003
5047423645,Assemblies,5.5269908,-0.26895470000000005
5047423644,Curve,5.5276423,-0.26792390000000005
5047423643,Last stop,5.528242100000001,-0.26511880000000004
5047423642,Karikari,5.531047200000001,-0.2612314
5047423641,Zone 6,5.531367,-0.25770580000000004
5047423639,Lotto House,5.5323856000000005,-0.25086780000000003
5047423638,Methodist,5.5344373000000004,-0.24445950000000002
5047423637,Junction,5.5339958000000005,-0.24288270000000003
5047423636,Fire Service,5.5323681,-0.2155341
5047423635,Salaga Junction,5.541577800000001,-0.20918730000000002
5047423634,Accra Bishop,5.543239300000001,-0.20451060000000001
5047542834,Korle er naa,5.5314145,-0.2193863
5047542833,Korle Beach Resort Junction,5.529295100000001,-0.22796550000000002
5047542832,White House,5.5283354000000005,-0.23264230000000002
5047542831,Galilee,5.5281617,-0.2335019
4980974763,Hotel Junction,5.528001400000001,-0.2342577
5047542830,Wolarm,5.5277463000000004,-0.23557460000000002
5047542829,Aayalolo,5.532172200000001,-0.2474976
5047542828,Curve,5.5278504,-0.2677237
5047542827,Agege Commando,5.5273111,-0.268442
5047542826,Assemblies,5.526976800000001,-0.26911440000000003
5047542825,Adofo Aman,5.526611600000001,-0.2699421
5047542824,Junction,5.525741600000001,-0.2711773
5047542823,Yellow House,5.524327400000001,-0.27188900000000005
5047423646,Glefe Station Last Stop,5.5221444,-0.2736929
5049594498,Bubuashie Control (Old Station ),5.580706900000001,-0.23949030000000002
5049594495,Fita,5.581389700000001,-0.23898000000000003
5049594496,Factory,5.5807693,-0.2457197
5049594494,Ayigbe town,5.5835048,-0.239881
5045432462,Awonye,5.5825259,-0.23632200000000003
5045432461,St. Johns,5.5823546,-0.23521910000000001
5049594493,Grade 4,5.586175600000001,-0.2294594
5049594492,Railway,5.5870939,-0.22268980000000002
5049594491,M-Plaza,5.5802513000000005,-0.22048520000000002
5049594490,Avenor,5.5801584,-0.21961650000000002
5049594489,Traffic Light,5.579495100000001,-0.2174918
5049610383,Azumah Nelson Complex,5.574862400000001,-0.22703320000000002
5049610382,Bongo bar,5.5737721,-0.22859330000000003
5045200685,Cocoa Clinic,5.571662600000001,-0.23596570000000003
5049610381,Bishop,5.5720594000000006,-0.23887260000000002
5049651138,Old Melcom,5.5876185000000005,-0.2264412
5049651137,Ashongman,5.5742577,-0.2166703
5049594497,Atico,5.5798595,-0.2469571
5050667455,School Junction Race Course,5.6081953,-0.2630711
5050667454,Attah Junction,5.6101907,-0.2651625
5050667453,Rasta Junction,5.6113365,-0.2661663
5050667457,Gyedu Junction,5.612386900000001,-0.26762230000000004
5050667456,Phobia Junction,5.6133366,-0.2696814
5022354483,Hansonic,5.5740151000000004,-0.25294150000000004
5050732580,Kokompe,5.5799311000000005,-0.25295700000000004
5058534312,Nyamekye,5.602925000000001,-0.2562978
5051112453,Kaneshie Market,5.5644409,-0.23429950000000002
5051112452,Mallam Station,5.566669,-0.23801440000000001
5051112451,Mataheko Quarters,5.5725993,-0.24774550000000004
5051112450,Dansoman Junction,5.5752116,-0.2521162
5051112449,Awoshie Baahyard,5.584499200000001,-0.27436950000000004
5051112448,Awoshie Mangoase,5.586452100000001,-0.2778301
5051112446,Abrantie,5.5888621,-0.28197900000000004
5051112444,Anyaa Market (Awoshie),5.5988940000000005,-0.29067000000000004
5051112443,Anyaa School Junction,5.6028846,-0.29302330000000004
5051112442,NIC,5.6137148,-0.29621400000000003
5051112441,Fanmilk Junction,5.6219947,-0.2984659
5051112440,Second Yellow,5.6265568,-0.29806790000000005
5051112439,Aba ase,5.6291992,-0.2980646
5051112438,Azorka Junction,5.633223,-0.298078
5051112437,Junction,5.634852800000001,-0.29806380000000005
5051112436,Fan-Milk,5.6361894,-0.29802270000000003
5051365823,Fan-Milk,5.6360717000000005,-0.2981107
5051365822,White House,5.6330175,-0.29815030000000003
5051365821,Hotel Junction,5.632573300000001,-0.2981518
5051364320,Ice water junction,5.6314742,-0.29811190000000004
5051364319,VRA Junction,5.6306909,-0.29811780000000004
5051364318,Aba ase,5.6297367000000005,-0.2981648
5051364317,Blue Kiosk,5.6279941,-0.29818160000000005
5051364316,Second Yellow,5.627097300000001,-0.2981828
5051364315,First Yellow,5.624852000000001,-0.29813900000000004
5051364314,Fan milk junction,5.622963100000001,-0.29819710000000005
5051364313,Bridge,5.613917700000001,-0.2965362
5051364312,Awoshie Junction,5.6062098,-0.29585370000000005
5051364311,Anyaa Market (Awoshie),5.5989158,-0.29096900000000003
5051364309,Awoshie Vineyard,5.583364100000001,-0.2748911
5051364308,Dansoman Junction,5.5749979000000005,-0.2525564
5051364307,Kaneshie,5.567334700000001,-0.2394929
5051364306,Maingate,5.553056300000001,-0.21467930000000002
5051604065,Sakaman,5.5749275,-0.2740368
5051604064,Awoshie,5.5847560000000005,-0.2734534
5051914055,Accra Wesley Girls School Junction,5.5671144,-0.23038660000000002
5051914054,Kaneshie Market junction,5.5682894,-0.23490840000000002
5052100024,Datus,5.5819704,-0.2426811
5052100023,Accra Post Office,5.541976600000001,-0.20977320000000002
5052216077,Kaneshie,5.563294900000001,-0.23196070000000002
5052216076,Mangoase,5.581953100000001,-0.24754920000000002
5045432463,Wireless,5.586240500000001,-0.24028270000000002
5052364797,Tema,5.6445050000000005,0.0023453000000000002
5052380389,Achimota Police Station,5.6209087,-0.2184337
1200964747,Under Bridge,5.6747917,-0.0435957
5052665988,Ashaiman Traffic Junction,5.686925700000001,-0.029393000000000002
5054183496,Abossey-Okai,5.5651612,-0.23657070000000002
5054364801,Overhead First Stop,5.5692329,-0.21258100000000002
5054364800,Overhead Second Stop,5.571144500000001,-0.21309240000000002
5054364799,Sadisco,5.574758,-0.2118549
5054364798,Top Radio,5.5770384,-0.2101658
5054364797,Bolga,5.579887,-0.20626380000000002
5054364796,Fidelity,5.6104734,-0.20455160000000003
5054364795,Junction,5.612049600000001,-0.2028493
5054364794,Last Chance,5.6118448,-0.19818110000000003
5054509012,Vulcanizer,5.6117737000000005,-0.2006901
5054509011,Fidelity,5.610614600000001,-0.20451020000000003
5054509010,School Junction,5.578998200000001,-0.21106550000000002
5054509009,Pro credit,5.5783909000000005,-0.21151640000000002
5054694255,Danquah First,5.567627600000001,-0.1823663
5054694254,Danquah Second,5.566157100000001,-0.1797379
5054694253,Barracks,5.5582465,-0.1679804
5024136430,Vet,5.556251400000001,-0.16775640000000003
5054694252,Jokers,5.5574897000000005,-0.16372950000000003
5054694250,Court,5.5572895,-0.1553659
5054694249,Dreamland,5.5586963,-0.1514771
5054694248,Alonte Bar,5.559664100000001,-0.1490217
5054694247,Regimanuel,5.562259,-0.1449292
5054694246,T-Junction,5.5631646,-0.14345190000000002
5054694245,Labadi Beach,5.5639367,-0.140608
5054694244,Bush Road Junction,5.566385100000001,-0.1317983
5054694243,First Gate,5.567527900000001,-0.1276876
5054694242,Second Gate,5.5685327000000004,-0.1238144
5054694241,Next Door,5.570559,-0.11776460000000001
5054694240,Laskala,5.578025200000001,-0.10982800000000001
5054694239,Addoemi,5.5801508,-0.1078564
5054694238,Mobil,5.583572,-0.1040033
5054694237,A-life,5.5912116,-0.09320510000000001
5054694236,C5,5.597805800000001,-0.082388
5054694235,Bank,5.600157500000001,-0.0802873
5045432464,Afropa,5.590347100000001,-0.24687370000000003
5045432460,Tsofi,5.5780319,-0.23546650000000002
5045200686,Good Shepherd (Orgle Street),5.5837975,-0.2363917
5064078031,Container,5.7387931000000005,-0.3148611
5064078030,Samsam Junction,5.7539328,-0.3213518
5064078029,Gaogao,5.757777600000001,-0.32390470000000005
5064078028,Bridge,5.752047,-0.339341
5064078027,Kotokou market,5.7351676000000005,-0.3613331
5064078026,Real Plan estate gate,5.727593100000001,-0.36447450000000003
5064078025,Sampahman police station,5.722248800000001,-0.3657226
5064078024,Sampahman,5.720015,-0.36558270000000004
5064078023,Adeyman,5.7171517000000005,-0.3718211
5064189148,Adeyman,5.7170414,-0.3718929
5064189147,Kwashiekuma,5.7111923,-0.36146760000000006
5064189146,Sampahman police station,5.722164500000001,-0.3656053
5064189145,Estate,5.7256508,-0.3650513
5064189144,Kotokou market,5.7351654000000005,-0.3615186
5064189143,Kwarteman,5.736266100000001,-0.353171
5064189142,Kotokou station,5.740011600000001,-0.35655570000000003
5064189141,Rafiki,5.7449102000000005,-0.3496052
5064189140,Akotoshi no.1,5.745609000000001,-0.3485668
5064189139,Rush,5.747943500000001,-0.34529040000000005
5064189138,Akotoshi No 2,5.7500941,-0.3419747
5064189137,Bridge,5.7570227,-0.331826
5064189136,Voltic,5.7586082,-0.32953920000000003
5064189135,Container,5.738470700000001,-0.3150312
5064189134,Pobiman,5.7354231,-0.31418090000000004
5064268101,Junction,5.596083200000001,-0.23330630000000002
5064268100,Souvenir 2nd,5.5938677000000006,-0.23299060000000002
5064268099,Drug Store,5.590827000000001,-0.23265270000000002
5064268098,Sunlight,5.5900616,-0.23224680000000003
5064268097,Welfare,5.5691119,-0.23416800000000002
5064268096,Kaneshie Last Stop,5.566203300000001,-0.23397400000000002
5064359917,Welfare,5.5690745,-0.23411150000000003
5064359916,Big Boss,5.5708751,-0.2323619
5064359915,Mantse 1st gate,5.575628300000001,-0.22911340000000002
5064359914,Mantse 2nd gate,5.576290200000001,-0.22839810000000002
5064359913,Picadilly,5.578111000000001,-0.2276574
5064359912,Drug Store,5.5907127,-0.23253300000000002
5064359911,First Junction,5.592236700000001,-0.23333660000000003
5064359910,Blue Kiosk,5.593377800000001,-0.23331010000000002
5064359909,Washing Bay,5.594196900000001,-0.23288930000000002
5064359908,School Juction,5.5954117000000005,-0.23317830000000003
5064405320,Ghana commercial bank,5.5762195000000006,-0.2231662
5064405319,Agbogbloshie,5.5552916,-0.22612220000000002
5064519469,Agbogbloshie,5.551694800000001,-0.21984270000000003
5064519468,Abossey Okai,5.5594533,-0.23030960000000003
5064519467,Nkrumah Flat,5.5739285,-0.2319218
5064519466,Prince of peace,5.5795709,-0.23179890000000003
5064519465,Mama Lizzy,5.5850717,-0.2318464
5064890132,Action Chapel,5.6263623,-0.16577080000000002
5064890131,Manet,5.6409092,-0.1281196
5064890130,Coca-Cola / Police Station,5.6499864,-0.10552120000000001
5064890129,Biscuit Factory,5.664086500000001,-0.066885
5064916996,Under Bridge,5.675014300000001,-0.0438795
5064916995,Biscuit Factory,5.6643226,-0.06722220000000001
5064916994,Abattoir,5.662129,-0.072688
5064916993,KICC,5.6551537000000005,-0.09355720000000001
5064916992,Police Station,5.650572800000001,-0.10502840000000001
5064916991,Ticket booth,5.6342154,-0.1455015
5064916990,Flower Pot,5.630227700000001,-0.1548285
5064916989,Action Chapel,5.626782100000001,-0.1655281
5064916988,Airport Junction,5.6226115000000005,-0.1782719
5064974048,Achimota Forest,5.6207628000000005,-0.2185736
5064974047,Shiashie,5.627485300000001,-0.1758338
5020395233,Emmanuel Eye Clinic,5.6299276,-0.1734169
5064974046,Yeboah,5.6362494000000005,-0.17177320000000001
5064974045,Bawaleshie Acheampong,5.6428153000000005,-0.16006810000000002
6530586992,Selina,5.6446871000000005,-0.15703930000000002
5064974044,Adjiringanor Curve,5.645654400000001,-0.14872780000000002
5064974043,Adjiringanor Bridge,5.6457942,-0.14457440000000002
5064974042,69 Block Factory,5.645716,-0.13925110000000002
5064974041,Gate,5.645684,-0.1370952
5064974040,Adjiringanor (Block Factory),5.6485338,-0.1323717
3785166428,Rawlings Junction,5.6512389,-0.1292828
5064974039,Otanor Curve,5.6517077,-0.1292395
5064974038,Pharmacy,5.6535004,-0.13001300000000002
5064974037,Ability,5.656773,-0.1314432
5064974036,Jahyor,5.659157800000001,-0.1323399
5064974035,Container,5.6609541000000005,-0.1316844
6530587001,unnamed,5.663010900000001,-0.13090120000000002
5064974034,Caterpillar,5.6646976,-0.1303116
5064974033,Salaam,5.669792800000001,-0.1284549
5064974032,Morocco,5.6710279,-0.12800450000000002
5064974031,Obinim,5.673134,-0.12722340000000001
5064974030,Bishop,5.6748038,-0.1266196
5064974029,Adjiringanor,5.677031800000001,-0.1250504
5064991470,Adjiringanor,5.6771612000000005,-0.1250987
6530587003,Obinim,5.6732629,-0.127307
5064991469,Morocco,5.6706165,-0.1282557
6530587002,Salaam,5.669644300000001,-0.12859920000000002
5064991468,Caterpillar,5.664891600000001,-0.13036720000000002
6530587000,Container,5.6607542,-0.1318842
5064991467,Jahyor,5.659059900000001,-0.1324584
5064991466,Ability,5.656606600000001,-0.13149100000000002
5064991465,Otanor Curve,5.651282,-0.1294314
5064991464,Adjiringanor (Block factory),5.648439400000001,-0.13253910000000002
5064991463,Gate,5.645767800000001,-0.13735750000000002
6530586999,69 Block Factory,5.645800200000001,-0.1392449
5064991462,Adjiringanor Bridge,5.6458696,-0.1449765
5064991461,Adjiringanor Curve,5.645681300000001,-0.14889560000000002
5088569162,American House,5.647042600000001,-0.14966790000000002
6530586993,MTN,5.6454345,-0.15622660000000002
5064991460,Bawaleshie First,5.642165100000001,-0.1648465
5064991459,Bawaleshie Traffic Light,5.6412506,-0.16972020000000002
6530586990,Puplampu,5.633726,-0.1725277
5064991458,GSL,5.617076900000001,-0.19924970000000003
5079127713,Kopevi,5.6145674,-0.23359770000000002
5079127712,Adwenpa,5.6149544,-0.2349652
5079127711,Akweteyman Zongo,5.6157852,-0.23744550000000003
5079127710,Akweteyman Zongo (Last Stop),5.614359100000001,-0.24023850000000002
5079240139,Akweteyman Zongo (Last Stop),5.614324000000001,-0.2401782
5079240138,Akweteyman Zongo,5.6157368000000005,-0.2375182
5079240137,Living God Junction,5.6159897,-0.23624650000000003
5079240136,Cemetry Junction,5.6173910000000005,-0.23372560000000003
5079240135,Achimota Market,5.619435200000001,-0.23203430000000003
5079240134,Kingsby Taxi Rank,5.619788400000001,-0.2324604
5079446426,Akotoshi No 2,5.750089600000001,-0.3421443
5079467258,Gaogao,5.757314300000001,-0.3238441
5079513347,Kaukudi,5.5940469,-0.1894888
5079513346,Kanda Masalaachi,5.5867284,-0.1927163
5079513345,Nima Junction,5.581985,-0.19480650000000002
5079513344,Overhead,5.577178300000001,-0.1970395
5079513343,Accra High School,5.568852700000001,-0.20090110000000003
5079586579,Sunny FM,5.570943100000001,-0.19954700000000003
5079586578,Nima Junction,5.5826114,-0.1943796
5079586577,441,5.5868755000000005,-0.19247850000000002
5079586576,Library,5.5885563000000005,-0.1918205
5079586575,Kaukudi,5.593194700000001,-0.18941460000000002
5079586574,Pig Farm Junction,5.601231,-0.19754120000000003
5079586573,Vulcanizer,5.619627400000001,-0.2250184
5079586572,Curve,5.619683200000001,-0.2258668
5079630606,Congo Junction,5.587343000000001,-0.1619152
5079630605,Soul Clinic,5.5817652,-0.15913960000000002
5079630604,Green Court,5.5655701,-0.1448749
5079630603,La-Palm Hotel,5.5633178,-0.14310450000000002
5079677925,Bank,5.6001649,-0.0803876
5054767124,Nungua Market,5.599917400000001,-0.0805217
5054767123,C5,5.5984781,-0.08151330000000001
5054767122,Cold Store,5.595988800000001,-0.0855429
5054767121,Brigade,5.593735000000001,-0.08933450000000001
5054759320,A-life,5.591088900000001,-0.0936217
5054759319,Teshie First Junction,5.588543400000001,-0.09780670000000001
5054759318,Abotsi Anya,5.5850742,-0.1025033
5054759317,Mobil,5.5825914,-0.1053604
5054759316,Addoemi,5.580323300000001,-0.10783980000000001
5054759315,Laskala,5.578960800000001,-0.1093926
5054759314,Police Station,5.5765482,-0.11106980000000001
5054759313,Kofi Annan,5.572899100000001,-0.11437870000000001
5054759312,Next Door,5.5714011,-0.11688590000000001
5054759311,First Gate,5.5688608,-0.1237251
5054759310,Second Gate,5.5676823,-0.1282367
5054759309,Bush Road Junction,5.5668717,-0.13126290000000002
5054759308,Gas,5.564667600000001,-0.1387044
5028671591,T-Junction,5.564122500000001,-0.14122
5079677924,T-Junction Curve,5.5641312,-0.1437218
5079677923,Trade Fair,5.5694651,-0.1474018
5011681557,Kpogas,5.572668900000001,-0.1496981
5011681556,Palm Wine,5.576384900000001,-0.15224220000000002
3210498662,Villas,5.5791002,-0.15546400000000002
5079677922,Soul Clinic,5.582496000000001,-0.15926140000000003
4400510902,Congo Junction,5.5882053,-0.16315100000000002
30730108,Home Touch,5.587401000000001,-0.16756130000000002
5079677921,El-Wak,5.5870842000000005,-0.17208880000000001
5082543203,Alajo Junction,5.5905534,-0.218066
5082543202,Sarbah Junction,5.595238500000001,-0.21677670000000002
5082543201,Alajo Blue Kiosk,5.5984993,-0.2145178
5082543200,Polo Junction,5.598347,-0.21222600000000003
5082543199,Modest,5.5962339000000005,-0.2097218
5082543198,Kotobabi Night Market,5.5946942,-0.20768080000000003
5082543197,Prempeh,5.5937165,-0.20676630000000001
5082543196,CJ School,5.5927096,-0.20566910000000002
5082543195,Kotobabi Police Station,5.5918437,-0.2046852
5082556330,Kotobabi Police Station,5.592005400000001,-0.2047826
5082556334,Social,5.5951637000000005,-0.2082218
5082556333,Modest,5.5963532,-0.20970890000000003
5082556332,Polo Junction,5.5984629,-0.21237450000000002
5082556331,Merciful Hotel,5.5985535,-0.2135911
5082613245,Arena,5.5457735,-0.21575300000000003
5082619900,Sikkens,5.552669000000001,-0.2232387
5082619899,Market,5.5512025000000005,-0.22160320000000003
5082971645,Palledium,5.5420116,-0.21564980000000003
5082993461,Seven Great Junction,5.5583181,-0.24441510000000002
5082993460,Block Factory junction,5.5581545000000006,-0.24352920000000003
5082993459,Zongo junction,5.5574766,-0.24054440000000002
5082993458,Great Lamptey,5.556735400000001,-0.23738080000000003
5082993457,Abossey Okai junction,5.5559064000000005,-0.23364680000000002
5082993456,Sabolai,5.555032400000001,-0.22539950000000003
5082993455,Galloway,5.5480245,-0.218063
5083057446,Tema station,5.5480827,-0.20154020000000003
5083057445,Shell,5.558016500000001,-0.18229720000000002
5083117565,Osu Salem,5.5543082,-0.18361590000000003
5083164019,Timber Market,5.543567800000001,-0.2162409
5083164018,Mamprobi Police Station,5.533956000000001,-0.2397401
5083198037,Galloway,5.5477778,-0.21772880000000003
5083251760,Kaneshie Roundabout,5.571110000000001,-0.22982870000000002
5083251759,Asoredanho,5.5841501000000004,-0.2380742
5083477304,Korle Beach Resort Junction,5.529311000000001,-0.22764520000000002
5083477303,Accra Royal,5.535498100000001,-0.21440330000000002
5083477302,Roundabout,5.5359502,-0.21341980000000002
5083477301,Palledium,5.541601300000001,-0.2154358
5083501068,Jamestown Police Station,5.536136000000001,-0.21357510000000002
5083501067,Accra Royal,5.5354688,-0.21499290000000001
5083501066,Korle gonno shell,5.5299358000000005,-0.2249076
5083501065,Tei Abaa,5.5273041,-0.23807770000000003
5083501064,Tea Garden,5.526985000000001,-0.24168240000000002
5084236789,Alajo,5.600097600000001,-0.21835960000000001
5084325674,Rana Motors,5.5585234,-0.22444960000000003
5084325673,Calvary,5.5935559,-0.2885705
5084325672,Nii Bortey,5.5963970000000005,-0.28964460000000003
5084325671,Anyaa,5.605082400000001,-0.29451550000000004
5084325670,Academy,5.6059551,-0.2951326
5084325669,Anyah Last Stop,5.6078144000000005,-0.29644400000000004
5084325668,Nsunfa,5.6164455,-0.2942715
5084325667,CP,5.618716500000001,-0.2945457
5084325666,Block Factory,5.620352800000001,-0.2963368
5084325665,Galilee,5.6234872000000005,-0.3022059
5084325664,Pentecost Junction,5.625876000000001,-0.30673950000000005
5084325663,Ablekuma Junction,5.626962400000001,-0.3087365
5084325662,Ablekuma Park,5.6273138000000005,-0.31353800000000004
5084325661,Bokorbokor,5.629068500000001,-0.3201353
5084325660,Ablekuma CP,5.6316851,-0.32355550000000005
5084325659,Ablekuma Block Factory,5.632266800000001,-0.3244384
5084325658,Point 5,5.6336624,-0.32634490000000005
5084325657,Paradise,5.6353040000000005,-0.3283749
5084325656,Mangoase,5.637721300000001,-0.33147190000000004
5084325655,Waakye,5.6386292000000005,-0.33226880000000003
5084325654,Oduman,5.6398963,-0.3336736
5084325653,Twibleoo,5.641620700000001,-0.3365596
5084325652,Nuumo Tse,5.6421026,-0.33893080000000003
5084325651,Alavanyo,5.6426378,-0.3413544
5084325650,Junction,5.6430676,-0.34485990000000005
5084325649,Manhean,5.642258300000001,-0.345837
5084413316,Manhean,5.6422286,-0.345795
5084413315,Junction,5.643210900000001,-0.34462980000000004
5084413302,Twibleoo,5.641642900000001,-0.33721540000000005
5084413314,Oduman,5.640455500000001,-0.3343916
5084413313,Block Factory,5.6322703,-0.32450870000000004
5084413312,Ablekuma Park,5.627252500000001,-0.3137801
5084413311,Block Factory,5.6202937,-0.2972155
5084413310,Nii Bortey,5.5972881,-0.2903817
5084413307,Abrantie,5.588617900000001,-0.2823278
5084413301,Awoshie Mangoase,5.5861833,-0.27812560000000003
5084413306,Awoshie Baahyard,5.5845542,-0.2751275
5084413305,Chabaar,5.5747100000000005,-0.27695390000000003
5084413304,Waterworks junction,5.5795988,-0.26018270000000004
5084413303,Glory Land,5.5782711,-0.2580518
5039935859,Orgle Road,5.577350000000001,-0.2357227
5087268448,Mt Olivet,5.5606439000000005,-0.26764020000000005
5087268451,First Gate,5.561393900000001,-0.26953910000000003
5087268450,Abam Kofi,5.562126500000001,-0.27074200000000004
5087268449,Opoku Ware,5.5642066,-0.27325720000000003
5087376299,Darkuman,5.588756900000001,-0.2512109
5087397765,Mangoase,5.586289300000001,-0.2483343
5087397764,Presby,5.588885400000001,-0.24981540000000002
5084834960,Rana motors,5.5588566,-0.22540010000000002
5088442011,Ebenezer,5.529509000000001,-0.2699202
5088442010,Post Office,5.541698200000001,-0.20914620000000003
5088471612,Accra Bishop,5.543744800000001,-0.2048637
5088569163,Adringanor Basic School Junction,5.646392400000001,-0.1351679
5088569161,KFC,5.6395721000000005,-0.1697006
4974193124,Sankara,5.570714700000001,-0.19123520000000002
5088569160,ADB House,5.5645354000000005,-0.19439900000000002
4974193125,Ridge,5.560503700000001,-0.1966274
5025776032,Children's Park First,5.5580075,-0.1984362
5088569159,Children's Park Second,5.556657500000001,-0.1995269
5025776031,Novotel,5.553397800000001,-0.20196730000000002
5089149953,Total,5.6078434,-0.226392
5089149952,School Junction,5.585191000000001,-0.2102043
5092671644,Israel,5.6307841000000005,-0.3221449
5092671643,Baajoo,5.6401947,-0.34932070000000004
5092671642,Manhia Afuaman,5.637938800000001,-0.3523835
5092747239,Manhia Afuaman,5.6383197,-0.35157190000000005
5084834966,Heavenly Church Junction,5.6270753000000004,-0.28562580000000004
5084834965,Printing Press,5.6236683,-0.2797718
5092806453,Abelenkpe,5.607823700000001,-0.21820360000000003
5092806452,Abelenkpe Fire Station,5.6092978,-0.21216600000000002
5092806451,Sadisco,5.5756917,-0.21349120000000002
5092884387,Abelenkpe,5.607793600000001,-0.21812460000000003
5092998364,Kokomlemle (Pro Credit),5.5783627000000005,-0.21144480000000002
5092998363,White Wall,5.613569200000001,-0.19623310000000002
5093045161,Kokomlemle,5.576308,-0.21304550000000003
5093104322,Flamingo,5.564540600000001,-0.24450810000000003
5093104321,Atico,5.574372200000001,-0.2507167
5084819923,Odorkor Station,5.5818840000000005,-0.26377320000000004
5084819922,Odorkor Market,5.582957100000001,-0.2641332
5084819921,Kwashieman School Junction,5.589667100000001,-0.2670071
5093166188,Kwashieman School Junction,5.5898393,-0.2673652
5084834963,Odorkor Official Town,5.5872685,-0.2656221
5084834962,Odorkor Market,5.5829341,-0.2641792
5093166187,Goil,5.5728553000000005,-0.24900970000000003
5093166186,Estate,5.552557200000001,-0.23088750000000002
5093166185,Zoti,5.5468906,-0.2282694
5093488045,Sue's Inn,5.610843900000001,-0.23252070000000002
5093488044,Hospital Roundabout Junction,5.681629600000001,-0.024569
5093488043,Site 20 Taxi Rank,5.6448596,0.0031821
5095822098,Pentecost,5.6137664,-0.2739806
5095822097,Mystical Rose Int School Junction,5.6152467,-0.2744266
5041737430,Old GCMA Bus Stop,5.625285900000001,-0.284532
5095822096,Masalaachi Sowutuom,5.6262663,-0.285383
5095822095,Heavenly Church,5.627150200000001,-0.2855866
5041737429,Mambo,5.6308024,-0.2853544
5095822094,Block factory Sowutuom,5.631101900000001,-0.28909520000000005
5095822093,Sowutuom,5.631116700000001,-0.2905494
5095915263,Sowutuom,5.6311363000000005,-0.29232820000000004
5095915262,Duase,5.631074900000001,-0.2909531
5095915261,Block factory Sowutuom,5.6310351,-0.28930120000000004
5095915260,Transformer Sowutuom,5.6220017,-0.2780232
5095915259,Mystical Rose Int School Junction,5.6153037,-0.27450070000000004
5095915258,Phobia Junction,5.6132856,-0.26973250000000004
5095971780,Waterworks,5.5560825000000005,-0.24042170000000002
5095971779,Sukura Market,5.5524034,-0.25120970000000004
5095971778,Loso,5.551024300000001,-0.2546007
5095971777,Akoo Store,5.5500489,-0.2547955
5102983309,Radio Gold,5.548000900000001,-0.2403724
5096135458,Accra Rawlings Park,5.545744300000001,-0.20763330000000002
4980974766,White House,5.5276285000000005,-0.23613560000000003
5096189434,Korle Gonno,5.5287408000000005,-0.23043460000000002
5096289421,Zongo Junction,5.556478500000001,-0.2401821
5096305001,Zongo Junction,5.5568182,-0.24007450000000002
5097648859,Community 4,5.655435400000001,-0.013442700000000002
5097648858,Community 6,5.657759800000001,-0.014352100000000001
5097648857,Community 7,5.6625038000000005,-0.016260900000000002
5097648856,Community 8,5.667937200000001,-0.018441100000000002
5097648855,Community 9,5.6716923,-0.019945800000000003
5097648854,Hospital Roundabout,5.6785468,-0.0227042
5102104495,Agege,5.529003100000001,-0.2646911
5102155250,Flat,5.5472362,-0.2333116
5102155249,Radio Gold,5.5470743,-0.23979050000000002
5102155248,Dan Wright,5.539964800000001,-0.24289710000000003
5102559171,Dan Wright,5.5398852000000005,-0.24285410000000002
5102559170,Kaneshie,5.5623056,-0.2374033
5102588595,Kaneshie Market,5.5647722,-0.23666470000000003
5102649419,Loso,5.5511416,-0.2545317
5102649418,Sukura Market,5.5522781000000005,-0.25138740000000004
5102649417,Flamingo,5.5581757000000005,-0.24656100000000003
5102649416,Happy Days,5.556072400000001,-0.23447110000000002
5102717951,Fire Service,5.5320594000000005,-0.21692720000000001
5102717950,Nzunzu,5.530109500000001,-0.22410980000000003
5102717949,1st stop,5.529497200000001,-0.2270166
5102717948,Ama Mensah,5.528882500000001,-0.230029
5102716808,Boodi,5.532739500000001,-0.21471050000000003
5102779997,Atta Quarshie,5.541487300000001,-0.21179230000000002
5102779996,Akoto Lante,5.5393755,-0.21324800000000002
5102779995,Agbado,5.5388397000000005,-0.21447940000000001
5102779994,London Market,5.5383722,-0.21648930000000002
5102779993,Camara,5.5373111,-0.2571508
5102802455,Mamprobi Shell,5.5336498,-0.23804370000000002
5102845904,Shiabu,5.5253011,-0.2566779
5102890841,Curve Shiabu,5.5258184,-0.25466
5102890840,Shiabu,5.525360200000001,-0.2567437
5102949434,Akoto Lante,5.5407833,-0.21540610000000002
5102949433,Agbado,5.540445,-0.2166568
5102949432,UTC,5.537417400000001,-0.21727000000000002
5102949426,Awotsɛ Kojo,5.534638900000001,-0.23292710000000003
5102949431,Radio Gold,5.5480675,-0.24030790000000002
5102949430,Mangoase,5.548073700000001,-0.2428086
5102949429,Taxi Rank,5.5467769,-0.24590420000000002
5102949428,Appiah Danquah,5.546771700000001,-0.24649510000000002
5102983312,Appiah Danquah,5.5466693000000005,-0.2465004
5102983311,Taxi Rank,5.5467323,-0.24593560000000003
5102983310,Junction Appiah Danquah,5.546659200000001,-0.24390260000000002
5102983308,Korle Bu Junction,5.5437091,-0.24000870000000002
5102983307,Mantse Agbonaa,5.5363942,-0.2106696
5104165255,Stadium Junction,5.550246100000001,-0.19090150000000003
5104165254,Osu Cemetry Junction,5.553136800000001,-0.18939160000000002
5104165253,Osu Salem,5.555908100000001,-0.18596700000000002
5104165252,Kaadzano Junction,5.5536535,-0.1744149
5104165251,La Olympia,5.559688700000001,-0.15854980000000002
5104221273,Total,5.5353957000000005,-0.22907080000000002
5104241683,Okponglo,5.6408993,-0.1763927
5104249331,Bawaleshie Traffic Light,5.641598200000001,-0.17005810000000002
5104249330,Okponglo,5.6409416000000006,-0.1763916
5104904324,Ridge,5.563561000000001,-0.20167870000000002
5104904323,School Junction,5.5618188,-0.20844120000000002
5104944365,P.T.C,5.568332900000001,-0.213734
5104944364,Masalachi,5.590114000000001,-0.20706680000000002
5104994688,Flat,5.547293300000001,-0.23310150000000002
5105027556,Academy,5.529155800000001,-0.2711852
5109596753,Christian Centre,5.638448500000001,-0.1503211
5109596752,Christian Centre,5.6384138,-0.15023920000000002
5109596751,A&C Mall,5.642080000000001,-0.1516424
5110119206,Mataheko,5.562979200000001,-0.2439524
5110119205,Busia Junction,5.5791228,-0.2678356
5110119204,Tipper,5.578403300000001,-0.2703227
5110119203,Sakaman,5.576664200000001,-0.2739904
5110119202,Chabaar,5.5760642,-0.27501050000000005
4462281289,Mallam Junction,5.571014900000001,-0.28550650000000005
5110119201,Masalaachi Mallam,5.572784100000001,-0.28674760000000005
5110119200,Abase Mallam,5.5743755,-0.2874568
5110119198,Mallam Station,5.5751711,-0.29005450000000005
5110119199,Mallam,5.5753595,-0.28942650000000003
5110140109,Abase Mallam,5.5743438,-0.28750780000000004
5110140108,Masalaachi Mallam,5.5732486,-0.28705210000000003
5110140107,Mallam Junction,5.570828700000001,-0.2854341
5110140105,Tipper,5.5783095000000005,-0.26995620000000004
5111502568,Tullow,5.621773500000001,-0.18082840000000003
5084819820,Video Junction,5.6013856,-0.27380200000000005
5111681610,Odorkor Official Town Junction,5.5887611,-0.2618668
5111681609,Darkuman junction,5.5915404,-0.25269220000000003
5111681608,Sun Flower Junction,5.5897151,-0.24322110000000002
5111681607,Ashfoam,5.578846500000001,-0.2234586
5111681606,Makola Market,5.5477344,-0.20490860000000002
5111702006,Accra Rawlings Park,5.545553900000001,-0.2085122
5111702009,Abossey Okai Zongo Junction,5.5561093,-0.2344091
5111702008,Mataheko,5.560430500000001,-0.2390114
5111702007,Central University,5.5662267000000005,-0.24201820000000002
5111743570,Ghana Commercial Bank,5.5846932,-0.20811320000000003
5111784811,Mataheko,5.5556049000000005,-0.25707800000000003
5111784810,New Russia,5.5561363,-0.2570488
5111784809,Mars,5.562175900000001,-0.2549669
5111784808,Liberty,5.565211000000001,-0.2548057
5111784807,Peace Clinic,5.5660553,-0.24775080000000002
5111790656,Station,5.566682,-0.2528763
5111790655,Mars,5.564507000000001,-0.2559659
5111790654,Filling Station,5.5591365,-0.2539324
5111790653,Mataheko,5.5550155000000006,-0.25711330000000004
5112610015,New Fadama,5.598357900000001,-0.24782500000000002
5112798929,Abelenkpe,5.6079878,-0.2180496
5112822915,Club 1000,5.595794700000001,-0.200693
5112822914,Commandos,5.580263100000001,-0.20529150000000002
5112822913,Kanda Overhead,5.574717700000001,-0.19834320000000003
5112822912,Novotel,5.5539658,-0.20479640000000002
5112961116,Museum,5.5606235,-0.20583680000000001
5112961115,Mallata,5.577665700000001,-0.2079011
5113056195,Commercial Bank,5.585323700000001,-0.20793250000000002
5113056194,College,5.5832717,-0.20689950000000001
5113124904,1st Curve,5.6420465,-0.2105739
5113124903,2nd Curve,5.642975000000001,-0.20980880000000002
5113124902,Bridge,5.644851,-0.21040640000000002
5113124901,Blue Kiosk,5.647539900000001,-0.2104242
5113124900,Sign board,5.651585900000001,-0.20941730000000003
5113124899,Communication,5.6538735,-0.20865160000000002
5113124898,Brainy School Junction,5.6547708000000005,-0.20833440000000003
5113124897,Police Container,5.657317600000001,-0.20756980000000003
5113124896,Barrier,5.6623168,-0.20510170000000003
5113124895,Barclays,5.665503500000001,-0.20457970000000003
5113124894,Haatso Station,5.667515900000001,-0.20496630000000002
5113124893,Pentecost,5.669582,-0.20548380000000002
5113124892,Bridge,5.671987400000001,-0.20449560000000003
5113124891,Sam J,5.6772438,-0.2027893
5113124890,Afari Gyan,5.679525000000001,-0.20206300000000002
5113124889,ECOMOG,5.6809886,-0.20166900000000001
5113124888,Pawpaw,5.6857636000000005,-0.1942666
5113124887,Cosway,5.6869613,-0.19438680000000003
5113124886,Cold Store,5.6888816,-0.1950609
5113124885,School Junction,5.6897516,-0.1959912
5113124884,Fitting Shop,5.690993000000001,-0.19750270000000003
5113124883,Agbogba,5.6919051000000005,-0.19867530000000003
5113124882,Cemetry,5.6940987000000005,-0.20048330000000003
5113124881,Assemblies,5.696054900000001,-0.2026156
5113124880,Supermarket,5.6983299,-0.2049159
5113124879,Abidjan Junction,5.699497000000001,-0.20599860000000003
5113124878,Down Town,5.7014683,-0.20814300000000002
5113124877,Ashongman,5.703547800000001,-0.21034260000000002
5113195639,Ashongman,5.7033142,-0.2104408
5113195638,Bridge (Ashongman last stop),5.700756800000001,-0.20724120000000001
5113195637,Islamic,5.699048100000001,-0.2057189
5113195636,Agbogba,5.691174,-0.1978871
5113195635,Cosway,5.6873424,-0.19461370000000003
5113195634,Pawpaw,5.6858329,-0.1942655
5113195633,ECOMOG,5.680574900000001,-0.20188150000000002
5113195632,Afari Gyan,5.679837200000001,-0.20207170000000002
5113195631,Sam J,5.677336100000001,-0.20283500000000002
5113195630,Mabey,5.676134200000001,-0.20318940000000002
5113195629,Block Factory,5.672211600000001,-0.2044844
5113195627,Haatso,5.667355700000001,-0.20476390000000003
5113195626,Brainy School Junction,5.6548613,-0.2083924
5113195625,Kwashieman Junction,5.6493102,-0.21012450000000002
5113195624,Blue Kiosk,5.6472812,-0.21052420000000002
5113195623,CP,5.615762900000001,-0.21401750000000003
5022640050,Ridge,5.5600459,-0.19664210000000001
5113361303,ADB House,5.5649249,-0.19400040000000002
4977864532,unnamed,5.5899463,-0.18120750000000002
5113398166,Ashaiman Market,5.6878209,-0.030102600000000004
5113398165,Washing Bay,5.6857651,-0.028594800000000004
5113398164,Immigration,5.569385400000001,-0.1918167
5113398163,National Theatre,5.553853900000001,-0.1997983
5113398162,Ministries,5.551643100000001,-0.19891840000000002
5113528014,Kaneshie Zongo,5.552542300000001,-0.2360096
5113528013,Lamptey Mills Junction,5.5561515,-0.23588320000000002
5114018831,Point 6,5.5275468000000005,-0.26734650000000004
5114018830,USA,5.5322468,-0.24794270000000002
5114018829,Methodist,5.5349275,-0.24430530000000003
5114018827,Agbobloshie Market,5.5503625,-0.22018320000000002
5114037514,Odogornno/Onyinaase,5.5902532,-0.28433980000000003
5155607283,Anyah,5.6073548,-0.29666210000000004
5114373506,Anyaa School Junction,5.602396100000001,-0.2932405
5115477023,Madina Station,5.6760292,-0.17126180000000002
5115477022,Madina Firestone Junction,5.6685252,-0.1712544
5115477021,Shangrila,5.6172269,-0.17642400000000003
5115661235,Choice Second,5.5524119,-0.32672530000000005
5115688032,First Light,5.5695002,-0.2417323
5115688031,Big Boss,5.5711373,-0.23206690000000002
5115688030,TV Africa,5.571800100000001,-0.22390870000000002
5115688029,Masalaachi Nima,5.5809249,-0.20632470000000003
5115688028,New Town,5.582694300000001,-0.20844790000000002
5115955264,National Service,5.6096595,-0.1831346
5115955263,Flower Pot,5.6296616,-0.15548930000000002
5115955262,Ticket booth,5.634453400000001,-0.14383610000000002
5116037043,18 Junction,5.6608784000000005,-0.0757699
5116037042,Trasacco,5.647172500000001,-0.11341110000000001
5116037041,Spanner,5.619701600000001,-0.17644790000000002
5116037040,National Service,5.609724300000001,-0.18321730000000003
5116094292,Abofu,5.6136996,-0.2262307
5116094291,Marwako,5.612178200000001,-0.22509240000000003
5116094290,Vulcanizer,5.612659000000001,-0.2223709
5116094289,White House,5.609661600000001,-0.216987
5116094288,Aquettey,5.607747900000001,-0.21593210000000002
5116094287,Pig Farm Junction,5.5990653,-0.19624300000000003
5116094286,Accra Girls,5.597747900000001,-0.1943149
5113829631,Mamobi Market,5.5939106,-0.19486340000000002
5116094285,Bridge,5.5827055,-0.20361330000000002
5116094284,Nima Station,5.581460300000001,-0.1986303
5119104080,Alajo Blue Kiosk,5.5985826,-0.2146076
5119104079,Alajo Station,5.595073,-0.21684050000000002
5119159351,Alajo Station,5.5955561000000005,-0.21678760000000002
5119159350,Polyclinic Junction,5.5894988,-0.2015221
5119159349,Maamobi,5.590042500000001,-0.19878420000000002
5119306504,Konka Curve,5.5956824,-0.19378170000000003
5120474814,Achimota New Station,5.620901300000001,-0.22355290000000003
5120539774,Market,5.5607112,-0.21198350000000002
5120539773,Graphic,5.5547868000000005,-0.21688200000000002
5120608514,Circle,5.5664426,-0.21180580000000002
5120608513,Borla,5.5837304,-0.1978329
5120608512,Frytol,5.5871629,-0.1968678
5120630952,Nima Station,5.5808013,-0.19900710000000002
5120661648,Police Station Kanda,5.5752531,-0.19866920000000002
5122854026,Odorkor Police Station,5.5773181,-0.2564844
5122881867,Odorkor Police Station,5.5776529,-0.25610540000000004
5122910516,Fatale,5.5578234,-0.22373640000000003
5123158993,Sakaman Blue Lagoon,5.571485000000001,-0.27213560000000003
5123186409,Mr Mensah,5.5377289,-0.2602179
5123186408,Camara Last Stop,5.5365881,-0.2558942
5123194248,One Way,5.5371136000000005,-0.21027610000000002
5123201415,Shell - Accra,5.541216100000001,-0.2131134
5124553578,Sukura (Kwahu Store),5.552181600000001,-0.25222
5124622923,Libirio,5.555673700000001,-0.24449140000000003
5124622922,Abossey Okai,5.557592100000001,-0.2362111
5124622921,Nima Market,5.580015500000001,-0.1994969
4997066313,Flat Top,5.609107900000001,-0.23736710000000003
5084834961,Odorkor Station,5.581037200000001,-0.26385050000000004
5128705675,Odorna Market,5.566762600000001,-0.21621330000000002
5128705674,Go Slow,5.5653367000000005,-0.1352284
5128896348,Orgle Street,5.585046,-0.236299
5035725210,Okponglo,5.6394944,-0.17809970000000003
6509088626,Hebron,5.771118700000001,-0.32656300000000005
6509088627,Doboro,5.7830927,-0.3345305
6509088629,Blue Skies,5.7854337000000005,-0.33573210000000003
6086844329,African Cola,5.7892552,-0.33752620000000005
6509088628,Curve,5.7908314,-0.33840220000000004
6509088630,Washing Bay,5.803692900000001,-0.34333820000000004
6509088632,Mobil,5.8097313,-0.34841960000000005
6509088631,Nsawam,5.813162500000001,-0.35257700000000003
6509531609,African Cola,5.7881049,-0.3370967
5536440480,Blue Skies,5.785527600000001,-0.3360133
6509531610,Doboro,5.7834943,-0.33510710000000005
6509531611,Hebron,5.7714723,-0.32693710000000004
6509531607,Samsam Junction,5.7538232,-0.3215888
6509531608,Satellite,5.7453327000000005,-0.3182495
6511664179,Madina,5.677168600000001,-0.1713127
6511664178,TF,5.6673667000000005,-0.182513
5794893517,Papawo,5.6674674000000005,-0.1981842
6511664177,Filling Station,5.6674867,-0.20338640000000002
6511664176,Stages,5.667526700000001,-0.2061437
6511664175,Video Junction,5.6675434000000005,-0.2090575
6511664174,Akonfem,5.667553700000001,-0.21254630000000002
6511664173,Asore Junction,5.6675987,-0.21366200000000002
5108873945,Rabbit Junction,5.6675889,-0.2157021
6511664172,Atomic Barrier,5.6675873,-0.2177985
6511664171,First Gate,5.667614,-0.21881650000000002
6511664170,Second Gate,5.667646700000001,-0.22055950000000002
6511664169,Kwabenya Police Station,5.667716100000001,-0.23141860000000003
6511664168,ECG,5.6677254,-0.23441340000000002
6511664167,School Junction,5.667771800000001,-0.23648080000000002
6511664166,Atomic First,5.6677675,-0.2380808
6511664165,Ecobank,5.666029300000001,-0.23854050000000002
6511664164,Save More,5.663173700000001,-0.23762290000000003
6511664163,Washing Bay,5.6623257,-0.23737960000000002
6511664160,Dome New Station / Commercial Bank,5.6608423000000005,-0.23742780000000002
6511664162,Vulcanizer,5.6527381000000005,-0.23746170000000003
6513380056,Agbogba Junction,5.667309500000001,-0.1882173
6520103542,Ecobank,5.667483000000001,-0.19903710000000002
6520103541,Capentary Shop,5.667555,-0.21181830000000001
6520103538,Pentecost junction,5.653965400000001,-0.2710407
6520103537,Seven Days,5.651187,-0.27234200000000003
6520103536,Fried Rice Junction,5.6500051000000004,-0.27334270000000005
6509531606,Washing Bay,5.647751700000001,-0.274785
6520103535,Top Hill,5.646583400000001,-0.2752309
6520103534,Hospital Jucntion,5.645123000000001,-0.27557170000000003
6520103533,Masalachi,5.642884700000001,-0.2758129
6520103532,Borla Junction,5.6421783,-0.2762583
6520103531,Block Factory,5.6407917,-0.27754330000000005
6520103543,Agenda,5.639613000000001,-0.27896180000000004
6520103544,Capital Hill,5.6380585000000005,-0.28071090000000004
6520103545,Lomnava Junction,5.634721600000001,-0.2831286
6520103546,Mensah Addo,5.6334764,-0.2836228
5084834967,Mambo,5.631346300000001,-0.28505030000000003
325329480,Sowutuom,5.624765200000001,-0.2834304
6520566854,Capital Hill,5.6378272,-0.2808487
6520566853,Agenda,5.6395723,-0.27893900000000005
6520566852,Block Factory,5.6406426000000005,-0.27764150000000004
6520566851,Borla Junction,5.642242100000001,-0.276112
6520566850,Masalachi,5.642970200000001,-0.27566870000000004
6520566849,Hospital Jucntion,5.64489,-0.2754843
6520566848,Top Hill,5.646279300000001,-0.2753006
6520566847,Washing Bay,5.6476353,-0.27474810000000005
6520566846,Fried Rice Junction,5.649801300000001,-0.2734499
6520566845,Seven Days,5.6513805,-0.2721658
4458149736,ICGC,5.6528008000000005,-0.2713953
6520566862,Pentecost junction,5.654373100000001,-0.27083430000000003
6520566844,St. Johns,5.6395102,-0.24213240000000003
6520566843,Pentecost Junction,5.648919800000001,-0.23670230000000003
6520566861,Vulcanizer,5.6530297,-0.23739700000000002
6520566842,Save More,5.663192100000001,-0.23756760000000002
6520566841,Atomic Second,5.667612500000001,-0.23836120000000002
6520566840,School Junction,5.6676739000000005,-0.23659100000000002
6520566860,ECG,5.6676283000000005,-0.23470500000000002
6520566839,Kwabenya Police Station,5.6676191000000005,-0.2315685
6520566837,First Gate,5.667544400000001,-0.22071630000000003
6520566838,Second Gate,5.6675411,-0.21899770000000002
6520566859,Atomic Barrier,5.667529300000001,-0.21789090000000003
6520566836,Rabbit Junction,5.6674977,-0.2163094
6520566834,Asore Junction,5.667499,-0.21429240000000002
6520566835,Capentary Shop,5.6674964,-0.21202590000000002
6520566833,Video Junction,5.6674750000000005,-0.2090044
6520566832,Stages,5.6674443000000005,-0.2062082
6520566831,Haatso,5.667451000000001,-0.20455460000000003
6520566858,Fidelity,5.667403,-0.2002539
6520566830,Ecobank,5.667382900000001,-0.1992211
6520566829,Papawo,5.6673869,-0.1982568
6520566857,Washing Bay,5.6673717,-0.1942182
6520566856,Emefa,5.6673423000000005,-0.1931486
6520566855,TF,5.6688963,-0.18197850000000002
